{
  "type": "FeatureCollection",
  "crs": {
    "type": "name",
    "properties": { "name": "urn:ogc:def:crs:OGC:1.3:CRS84" }
  },
  "features": [
    {
      "type": "Feature",
      "properties": {
        "SISTEMA": "Metrobús",
        "NOMBRE": "Terminal 1 - Aeropuerto",
        "LINEA": "04",
        "EST": null,
        "CVE_EST": null,
        "CVE_EOD17": null,
        "TIPO": null,
        "ALCALDIAS": null,
        "AÑO": null
      },
      "geometry": {
        "type": "Point",
        "coordinates": [-99.083666, 19.435307, 0.0]
      }
    },
    {
      "type": "Feature",
      "properties": {
        "SISTEMA": "Metrobús",
        "NOMBRE": "Terminal 2 - Aeropuerto",
        "LINEA": "04",
        "EST": null,
        "CVE_EST": null,
        "CVE_EOD17": null,
        "TIPO": null,
        "ALCALDIAS": null,
        "AÑO": null
      },
      "geometry": {
        "type": "Point",
        "coordinates": [-99.07725, 19.421476, 0.0]
      }
    },
    {
      "type": "Feature",
      "properties": {
        "SISTEMA": "Metrobús",
        "NOMBRE": "Delegación Cuauhtémoc",
        "LINEA": "04",
        "EST": "02",
        "CVE_EST": "MB0402",
        "CVE_EOD17": "11121",
        "TIPO": "Intermedia",
        "ALCALDIAS": "Cuauhtémoc",
        "AÑO": 2012
      },
      "geometry": {
        "type": "Point",
        "coordinates": [-99.152416, 19.442594, 0.0]
      }
    },
    {
      "type": "Feature",
      "properties": {
        "SISTEMA": "Metrobús",
        "NOMBRE": "Delegación Cuauhtémoc",
        "LINEA": "04",
        "EST": "02",
        "CVE_EST": "MB0402",
        "CVE_EOD17": "11121",
        "TIPO": "Intermedia",
        "ALCALDIAS": "Cuauhtémoc",
        "AÑO": 2012
      },
      "geometry": {
        "type": "Point",
        "coordinates": [-99.152454, 19.442136, 0.0]
      }
    },
    {
      "type": "Feature",
      "properties": {
        "SISTEMA": "Metrobús",
        "NOMBRE": "México Tenochtitlan",
        "LINEA": "04",
        "EST": null,
        "CVE_EST": null,
        "CVE_EOD17": null,
        "TIPO": null,
        "ALCALDIAS": null,
        "AÑO": null
      },
      "geometry": {
        "type": "Point",
        "coordinates": [-99.153269, 19.439025, 0.0]
      }
    },
    {
      "type": "Feature",
      "properties": {
        "SISTEMA": "Metrobús",
        "NOMBRE": "México Tenochtitlan",
        "LINEA": "04",
        "EST": null,
        "CVE_EST": null,
        "CVE_EOD17": null,
        "TIPO": null,
        "ALCALDIAS": null,
        "AÑO": null
      },
      "geometry": {
        "type": "Point",
        "coordinates": [-99.153457, 19.438641, 0.0]
      }
    },
    {
      "type": "Feature",
      "properties": {
        "SISTEMA": "Metrobús",
        "NOMBRE": "Plaza de la República",
        "LINEA": "04",
        "EST": "18",
        "CVE_EST": "MB0418",
        "CVE_EOD17": "11142",
        "TIPO": "Intermedia",
        "ALCALDIAS": "Cuauhtémoc",
        "AÑO": 2012
      },
      "geometry": {
        "type": "Point",
        "coordinates": [-99.154138, 19.436804, 0.0]
      }
    },
    {
      "type": "Feature",
      "properties": {
        "SISTEMA": "Metrobús",
        "NOMBRE": "Plaza de la República",
        "LINEA": "04",
        "EST": "18",
        "CVE_EST": "MB0418",
        "CVE_EOD17": "11142",
        "TIPO": "Intermedia",
        "ALCALDIAS": "Cuauhtémoc",
        "AÑO": 2012
      },
      "geometry": {
        "type": "Point",
        "coordinates": [-99.153982, 19.437128, 0.0]
      }
    },
    {
      "type": "Feature",
      "properties": {
        "SISTEMA": "Metrobús",
        "NOMBRE": "Glorieta de Colón",
        "LINEA": "04",
        "EST": "19",
        "CVE_EST": "MB0419",
        "CVE_EOD17": "11127",
        "TIPO": "Transbordo",
        "ALCALDIAS": "Cuauhtémoc",
        "AÑO": 2012
      },
      "geometry": {
        "type": "Point",
        "coordinates": [-99.153532, 19.434159, 0.0]
      }
    },
    {
      "type": "Feature",
      "properties": {
        "SISTEMA": "Metrobús",
        "NOMBRE": "Glorieta de Colón",
        "LINEA": "04",
        "EST": "19",
        "CVE_EST": "MB0419",
        "CVE_EOD17": "11127",
        "TIPO": "Transbordo",
        "ALCALDIAS": "Cuauhtémoc",
        "AÑO": 2012
      },
      "geometry": {
        "type": "Point",
        "coordinates": [-99.153371, 19.435014, 0.0]
      }
    },
    {
      "type": "Feature",
      "properties": {
        "SISTEMA": "Metrobús",
        "NOMBRE": "Defensoría Publica",
        "LINEA": "04",
        "EST": null,
        "CVE_EST": null,
        "CVE_EOD17": null,
        "TIPO": null,
        "ALCALDIAS": null,
        "AÑO": null
      },
      "geometry": {
        "type": "Point",
        "coordinates": [-99.151011, 19.433364, 0.0]
      }
    },
    {
      "type": "Feature",
      "properties": {
        "SISTEMA": "Metrobús",
        "NOMBRE": "Defensoría Pública",
        "LINEA": "04",
        "EST": null,
        "CVE_EST": null,
        "CVE_EOD17": null,
        "TIPO": null,
        "ALCALDIAS": null,
        "AÑO": null
      },
      "geometry": {
        "type": "Point",
        "coordinates": [-99.15063, 19.433106, 0.0]
      }
    },
    {
      "type": "Feature",
      "properties": {
        "SISTEMA": "Metrobús",
        "NOMBRE": "Vocacional 5",
        "LINEA": "04",
        "EST": "21",
        "CVE_EST": "MB0421",
        "CVE_EOD17": "11152",
        "TIPO": "Intermedia",
        "ALCALDIAS": "Cuauhtémoc",
        "AÑO": 2012
      },
      "geometry": {
        "type": "Point",
        "coordinates": [-99.150217, 19.431589, 0.0]
      }
    },
    {
      "type": "Feature",
      "properties": {
        "SISTEMA": "Metrobús",
        "NOMBRE": "Vocacional 5",
        "LINEA": "04",
        "EST": "21",
        "CVE_EST": "MB0421",
        "CVE_EOD17": "11152",
        "TIPO": "Intermedia",
        "ALCALDIAS": "Cuauhtémoc",
        "AÑO": 2012
      },
      "geometry": {
        "type": "Point",
        "coordinates": [-99.150952, 19.431756, 0.0]
      }
    },
    {
      "type": "Feature",
      "properties": {
        "SISTEMA": "Metrobús",
        "NOMBRE": "Juárez",
        "LINEA": "04",
        "EST": "22",
        "CVE_EST": "MB0422",
        "CVE_EOD17": "11131",
        "TIPO": "Transbordo",
        "ALCALDIAS": "Cuauhtémoc",
        "AÑO": 2012
      },
      "geometry": {
        "type": "Point",
        "coordinates": [-99.148387, 19.431305, 0.0]
      }
    },
    {
      "type": "Feature",
      "properties": {
        "SISTEMA": "Metrobús",
        "NOMBRE": "Juárez",
        "LINEA": "04",
        "EST": "22",
        "CVE_EST": "MB0422",
        "CVE_EOD17": "11131",
        "TIPO": "Transbordo",
        "ALCALDIAS": "Cuauhtémoc",
        "AÑO": 2012
      },
      "geometry": {
        "type": "Point",
        "coordinates": [-99.147744, 19.43126, 0.0]
      }
    },
    {
      "type": "Feature",
      "properties": {
        "SISTEMA": "Metrobús",
        "NOMBRE": "Mercados San Juan",
        "LINEA": "04",
        "EST": null,
        "CVE_EST": null,
        "CVE_EOD17": null,
        "TIPO": null,
        "ALCALDIAS": null,
        "AÑO": null
      },
      "geometry": {
        "type": "Point",
        "coordinates": [-99.143549, 19.430607, 0.0]
      }
    },
    {
      "type": "Feature",
      "properties": {
        "SISTEMA": "Metrobús",
        "NOMBRE": "Mercados San Juan",
        "LINEA": "04",
        "EST": null,
        "CVE_EST": null,
        "CVE_EOD17": null,
        "TIPO": null,
        "ALCALDIAS": null,
        "AÑO": null
      },
      "geometry": {
        "type": "Point",
        "coordinates": [-99.144654, 19.430772, 0.0]
      }
    },
    {
      "type": "Feature",
      "properties": {
        "SISTEMA": "Metrobús",
        "NOMBRE": "Eje Central Metrobús",
        "LINEA": "04",
        "EST": null,
        "CVE_EST": null,
        "CVE_EOD17": null,
        "TIPO": null,
        "ALCALDIAS": null,
        "AÑO": null
      },
      "geometry": {
        "type": "Point",
        "coordinates": [-99.141929, 19.430334, 0.0]
      }
    },
    {
      "type": "Feature",
      "properties": {
        "SISTEMA": "Metrobús",
        "NOMBRE": "Eje Central Metrobús",
        "LINEA": "04",
        "EST": null,
        "CVE_EST": null,
        "CVE_EOD17": null,
        "TIPO": null,
        "ALCALDIAS": null,
        "AÑO": null
      },
      "geometry": {
        "type": "Point",
        "coordinates": [-99.140797, 19.430304, 0.0]
      }
    },
    {
      "type": "Feature",
      "properties": {
        "SISTEMA": "Metrobús",
        "NOMBRE": "El Salvador",
        "LINEA": "04",
        "EST": "25",
        "CVE_EST": "MB0425",
        "CVE_EOD17": "11124",
        "TIPO": "Intermedia",
        "ALCALDIAS": "Cuauhtémoc",
        "AÑO": 2012
      },
      "geometry": {
        "type": "Point",
        "coordinates": [-99.138538, 19.429874, 0.0]
      }
    },
    {
      "type": "Feature",
      "properties": {
        "SISTEMA": "Metrobús",
        "NOMBRE": "El Salvador",
        "LINEA": "04",
        "EST": "25",
        "CVE_EST": "MB0425",
        "CVE_EOD17": "11124",
        "TIPO": "Intermedia",
        "ALCALDIAS": "Cuauhtémoc",
        "AÑO": 2012
      },
      "geometry": {
        "type": "Point",
        "coordinates": [-99.139418, 19.430071, 0.0]
      }
    },
    {
      "type": "Feature",
      "properties": {
        "SISTEMA": "Metrobús",
        "NOMBRE": "Isabel La Católica",
        "LINEA": "04",
        "EST": "26",
        "CVE_EST": "MB0426",
        "CVE_EOD17": "11130",
        "TIPO": "Intermedia",
        "ALCALDIAS": "Cuauhtémoc",
        "AÑO": 2012
      },
      "geometry": {
        "type": "Point",
        "coordinates": [-99.137009, 19.429616, 0.0]
      }
    },
    {
      "type": "Feature",
      "properties": {
        "SISTEMA": "Metrobús",
        "NOMBRE": "Isabel La Católica",
        "LINEA": "04",
        "EST": "26",
        "CVE_EST": "MB0426",
        "CVE_EOD17": "11130",
        "TIPO": "Intermedia",
        "ALCALDIAS": "Cuauhtémoc",
        "AÑO": 2012
      },
      "geometry": {
        "type": "Point",
        "coordinates": [-99.136586, 19.429692, 0.0]
      }
    },
    {
      "type": "Feature",
      "properties": {
        "SISTEMA": "Metrobús",
        "NOMBRE": "Museo de la Ciudad",
        "LINEA": "04",
        "EST": "27",
        "CVE_EST": "MB0427",
        "CVE_EOD17": "11139",
        "TIPO": "Intermedia",
        "ALCALDIAS": "Cuauhtémoc",
        "AÑO": 2012
      },
      "geometry": {
        "type": "Point",
        "coordinates": [-99.132407, 19.42914, 0.0]
      }
    },
    {
      "type": "Feature",
      "properties": {
        "SISTEMA": "Metrobús",
        "NOMBRE": "Museo de la Ciudad",
        "LINEA": "04",
        "EST": "27",
        "CVE_EST": "MB0427",
        "CVE_EOD17": "11139",
        "TIPO": "Intermedia",
        "ALCALDIAS": "Cuauhtémoc",
        "AÑO": 2012
      },
      "geometry": {
        "type": "Point",
        "coordinates": [-99.132804, 19.428928, 0.0]
      }
    },
    {
      "type": "Feature",
      "properties": {
        "SISTEMA": "Metrobús",
        "NOMBRE": "Pino Suárez",
        "LINEA": "04",
        "EST": "28",
        "CVE_EST": "MB0428",
        "CVE_EOD17": "11141",
        "TIPO": "Intermedia",
        "ALCALDIAS": "Cuauhtémoc",
        "AÑO": 2012
      },
      "geometry": {
        "type": "Point",
        "coordinates": [-99.132782, 19.426661, 0.0]
      }
    },
    {
      "type": "Feature",
      "properties": {
        "SISTEMA": "Metrobús",
        "NOMBRE": "Las Cruces Sur",
        "LINEA": "04",
        "EST": "30",
        "CVE_EST": "MB0430",
        "CVE_EOD17": "11134",
        "TIPO": "Intermedia",
        "ALCALDIAS": "Cuauhtémoc",
        "AÑO": 2012
      },
      "geometry": {
        "type": "Point",
        "coordinates": [-99.129918, 19.426155, 0.0]
      }
    },
    {
      "type": "Feature",
      "properties": {
        "SISTEMA": "Metrobús",
        "NOMBRE": "Las Cruces Norte",
        "LINEA": "04",
        "EST": "29",
        "CVE_EST": "MB0429",
        "CVE_EOD17": "11133",
        "TIPO": "Intermedia",
        "ALCALDIAS": "Cuauhtémoc",
        "AÑO": 2012
      },
      "geometry": { "type": "Point", "coordinates": [-99.129269, 19.4287, 0.0] }
    },
    {
      "type": "Feature",
      "properties": {
        "SISTEMA": "Metrobús",
        "NOMBRE": "La Merced",
        "LINEA": "04",
        "EST": null,
        "CVE_EST": null,
        "CVE_EOD17": null,
        "TIPO": null,
        "ALCALDIAS": null,
        "AÑO": null
      },
      "geometry": {
        "type": "Point",
        "coordinates": [-99.125948, 19.425447, 0.0]
      }
    },
    {
      "type": "Feature",
      "properties": {
        "SISTEMA": "Metrobús",
        "NOMBRE": "Circunvalación",
        "LINEA": "04",
        "EST": "31",
        "CVE_EST": "MB0431",
        "CVE_EOD17": "11120",
        "TIPO": "Intermedia",
        "ALCALDIAS": "Cuauhtémoc",
        "AÑO": 2012
      },
      "geometry": {
        "type": "Point",
        "coordinates": [-99.125524, 19.428341, 0.0]
      }
    },
    {
      "type": "Feature",
      "properties": {
        "SISTEMA": "Metrobús",
        "NOMBRE": "Mercado de Sonora",
        "LINEA": "04",
        "EST": "33",
        "CVE_EST": "MB0433",
        "CVE_EOD17": "11135",
        "TIPO": "Intermedia",
        "ALCALDIAS": "Venustiano Carranza",
        "AÑO": 2012
      },
      "geometry": {
        "type": "Point",
        "coordinates": [-99.12392, 19.423181, 0.0]
      }
    },
    {
      "type": "Feature",
      "properties": {
        "SISTEMA": "Metrobús",
        "NOMBRE": "Mercado de Sonora",
        "LINEA": "04",
        "EST": "33",
        "CVE_EST": "MB0433",
        "CVE_EOD17": "11135",
        "TIPO": "Intermedia",
        "ALCALDIAS": "Venustiano Carranza",
        "AÑO": 2012
      },
      "geometry": {
        "type": "Point",
        "coordinates": [-99.123411, 19.423241, 0.0]
      }
    },
    {
      "type": "Feature",
      "properties": {
        "SISTEMA": "Metrobús",
        "NOMBRE": "Cecilio Robelo",
        "LINEA": "04",
        "EST": "34",
        "CVE_EST": "MB0434",
        "CVE_EOD17": "11119",
        "TIPO": "Intermedia",
        "ALCALDIAS": "Venustiano Carranza",
        "AÑO": 2012
      },
      "geometry": {
        "type": "Point",
        "coordinates": [-99.11987, 19.425174, 0.0]
      }
    },
    {
      "type": "Feature",
      "properties": {
        "SISTEMA": "Metrobús",
        "NOMBRE": "Cecilio Robelo",
        "LINEA": "04",
        "EST": "34",
        "CVE_EST": "MB0434",
        "CVE_EOD17": "11119",
        "TIPO": "Intermedia",
        "ALCALDIAS": "Venustiano Carranza",
        "AÑO": 2012
      },
      "geometry": {
        "type": "Point",
        "coordinates": [-99.119044, 19.425483, 0.0]
      }
    },
    {
      "type": "Feature",
      "properties": {
        "SISTEMA": "Metrobús",
        "NOMBRE": "Eduardo Molina",
        "LINEA": "04",
        "EST": "35",
        "CVE_EST": "MB0435",
        "CVE_EOD17": "11122",
        "TIPO": "Intermedia",
        "ALCALDIAS": "Venustiano Carranza",
        "AÑO": 2012
      },
      "geometry": {
        "type": "Point",
        "coordinates": [-99.116228, 19.427177, 0.0]
      }
    },
    {
      "type": "Feature",
      "properties": {
        "SISTEMA": "Metrobús",
        "NOMBRE": "Hospital Balbuena",
        "LINEA": "04",
        "EST": "36",
        "CVE_EST": "MB0436",
        "CVE_EOD17": "11129",
        "TIPO": "Intermedia",
        "ALCALDIAS": "Venustiano Carranza",
        "AÑO": 2012
      },
      "geometry": {
        "type": "Point",
        "coordinates": [-99.116153, 19.425098, 0.0]
      }
    },
    {
      "type": "Feature",
      "properties": {
        "SISTEMA": "Metrobús",
        "NOMBRE": "Moctezuma",
        "LINEA": "04",
        "EST": "37",
        "CVE_EST": "MB0437",
        "CVE_EOD17": "11137",
        "TIPO": "Transbordo",
        "ALCALDIAS": "Venustiano Carranza",
        "AÑO": 2012
      },
      "geometry": {
        "type": "Point",
        "coordinates": [-99.111979, 19.426894, 0.0]
      }
    },
    {
      "type": "Feature",
      "properties": {
        "SISTEMA": "Metrobús",
        "NOMBRE": "Terminal San Lázaro",
        "LINEA": "04",
        "EST": null,
        "CVE_EST": null,
        "CVE_EOD17": null,
        "TIPO": null,
        "ALCALDIAS": null,
        "AÑO": null
      },
      "geometry": {
        "type": "Point",
        "coordinates": [-99.115171, 19.430911, 0.0]
      }
    },
    {
      "type": "Feature",
      "properties": {
        "SISTEMA": "Metrobús",
        "NOMBRE": "Terminal San Lázaro",
        "LINEA": "04",
        "EST": null,
        "CVE_EST": null,
        "CVE_EOD17": null,
        "TIPO": null,
        "ALCALDIAS": null,
        "AÑO": null
      },
      "geometry": {
        "type": "Point",
        "coordinates": [-99.115428, 19.431116, 0.0]
      }
    },
    {
      "type": "Feature",
      "properties": {
        "SISTEMA": "Metrobús",
        "NOMBRE": "Archivo General de la Nación",
        "LINEA": "04",
        "EST": "14",
        "CVE_EST": "MB0414",
        "CVE_EOD17": "11116",
        "TIPO": "Transbordo",
        "ALCALDIAS": "Venustiano Carranza",
        "AÑO": 2012
      },
      "geometry": {
        "type": "Point",
        "coordinates": [-99.115176, 19.435363, 0.0]
      }
    },
    {
      "type": "Feature",
      "properties": {
        "SISTEMA": "Metrobús",
        "NOMBRE": "Archivo General de la Nación",
        "LINEA": "04",
        "EST": "14",
        "CVE_EST": "MB0414",
        "CVE_EOD17": "11116",
        "TIPO": "Transbordo",
        "ALCALDIAS": "Venustiano Carranza",
        "AÑO": 2012
      },
      "geometry": {
        "type": "Point",
        "coordinates": [-99.114618, 19.434968, 0.0]
      }
    },
    {
      "type": "Feature",
      "properties": {
        "SISTEMA": "Metrobús",
        "NOMBRE": "Morelos",
        "LINEA": "04",
        "EST": "13",
        "CVE_EST": "MB0413",
        "CVE_EOD17": "11138",
        "TIPO": "Intermedia",
        "ALCALDIAS": "Venustiano Carranza",
        "AÑO": 2012
      },
      "geometry": {
        "type": "Point",
        "coordinates": [-99.119001, 19.435813, 0.0]
      }
    },
    {
      "type": "Feature",
      "properties": {
        "SISTEMA": "Metrobús",
        "NOMBRE": "Morelos",
        "LINEA": "04",
        "EST": "13",
        "CVE_EST": "MB0413",
        "CVE_EOD17": "11138",
        "TIPO": "Intermedia",
        "ALCALDIAS": "Venustiano Carranza",
        "AÑO": 2012
      },
      "geometry": {
        "type": "Point",
        "coordinates": [-99.118245, 19.435788, 0.0]
      }
    },
    {
      "type": "Feature",
      "properties": {
        "SISTEMA": "Metrobús",
        "NOMBRE": "Ferrocarril de Cintura",
        "LINEA": "04",
        "EST": "12",
        "CVE_EST": "MB0412",
        "CVE_EOD17": "11126",
        "TIPO": "Intermedia",
        "ALCALDIAS": "Venustiano Carranza",
        "AÑO": 2012
      },
      "geometry": { "type": "Point", "coordinates": [-99.121614, 19.436, 0.0] }
    },
    {
      "type": "Feature",
      "properties": {
        "SISTEMA": "Metrobús",
        "NOMBRE": "Ferrocarril de Cintura",
        "LINEA": "04",
        "EST": "12",
        "CVE_EST": "MB0412",
        "CVE_EOD17": "11126",
        "TIPO": "Intermedia",
        "ALCALDIAS": "Venustiano Carranza",
        "AÑO": 2012
      },
      "geometry": {
        "type": "Point",
        "coordinates": [-99.120809, 19.436142, 0.0]
      }
    },
    {
      "type": "Feature",
      "properties": {
        "SISTEMA": "Metrobús",
        "NOMBRE": "Mixcalco",
        "LINEA": "04",
        "EST": "11",
        "CVE_EST": "MB0411",
        "CVE_EOD17": "11136",
        "TIPO": "Intermedia",
        "ALCALDIAS": "Cuauhtémoc / Venustiano Carranza",
        "AÑO": 2012
      },
      "geometry": {
        "type": "Point",
        "coordinates": [-99.123413, 19.436357, 0.0]
      }
    },
    {
      "type": "Feature",
      "properties": {
        "SISTEMA": "Metrobús",
        "NOMBRE": "Mixcalco",
        "LINEA": "04",
        "EST": "11",
        "CVE_EST": "MB0411",
        "CVE_EOD17": "11136",
        "TIPO": "Intermedia",
        "ALCALDIAS": "Cuauhtémoc / Venustiano Carranza",
        "AÑO": 2012
      },
      "geometry": {
        "type": "Point",
        "coordinates": [-99.124156, 19.436324, 0.0]
      }
    },
    {
      "type": "Feature",
      "properties": {
        "SISTEMA": "Metrobús",
        "NOMBRE": "Teatro del Pueblo",
        "LINEA": "04",
        "EST": "10",
        "CVE_EST": "MB0410",
        "CVE_EOD17": "11149",
        "TIPO": "Intermedia",
        "ALCALDIAS": "Cuauhtémoc",
        "AÑO": 2012
      },
      "geometry": {
        "type": "Point",
        "coordinates": [-99.127622, 19.436769, 0.0]
      }
    },
    {
      "type": "Feature",
      "properties": {
        "SISTEMA": "Metrobús",
        "NOMBRE": "Teatro del Pueblo",
        "LINEA": "04",
        "EST": "10",
        "CVE_EST": "MB0410",
        "CVE_EOD17": "11149",
        "TIPO": "Intermedia",
        "ALCALDIAS": "Cuauhtémoc",
        "AÑO": 2012
      },
      "geometry": {
        "type": "Point",
        "coordinates": [-99.127042, 19.43685, 0.0]
      }
    },
    {
      "type": "Feature",
      "properties": {
        "SISTEMA": "Metrobús",
        "NOMBRE": "República de Argentina",
        "LINEA": "04",
        "EST": "09",
        "CVE_EST": "MB0409",
        "CVE_EOD17": "11145",
        "TIPO": "Intermedia",
        "ALCALDIAS": "Cuauhtémoc",
        "AÑO": 2012
      },
      "geometry": {
        "type": "Point",
        "coordinates": [-99.131999, 19.437406, 0.0]
      }
    },
    {
      "type": "Feature",
      "properties": {
        "SISTEMA": "Metrobús",
        "NOMBRE": "República de Argentina",
        "LINEA": "04",
        "EST": "09",
        "CVE_EST": "MB0409",
        "CVE_EOD17": "11145",
        "TIPO": "Intermedia",
        "ALCALDIAS": "Cuauhtémoc",
        "AÑO": 2012
      },
      "geometry": {
        "type": "Point",
        "coordinates": [-99.131194, 19.437356, 0.0]
      }
    },
    {
      "type": "Feature",
      "properties": {
        "SISTEMA": "Metrobús",
        "NOMBRE": "República de Chile",
        "LINEA": "04",
        "EST": "08",
        "CVE_EST": "MB0408",
        "CVE_EOD17": "11146",
        "TIPO": "Intermedia",
        "ALCALDIAS": "Cuauhtémoc",
        "AÑO": 2012
      },
      "geometry": {
        "type": "Point",
        "coordinates": [-99.135896, 19.437965, 0.0]
      }
    },
    {
      "type": "Feature",
      "properties": {
        "SISTEMA": "Metrobús",
        "NOMBRE": "República de Chile",
        "LINEA": "04",
        "EST": "08",
        "CVE_EST": "MB0408",
        "CVE_EOD17": "11146",
        "TIPO": "Intermedia",
        "ALCALDIAS": "Cuauhtémoc",
        "AÑO": 2012
      },
      "geometry": {
        "type": "Point",
        "coordinates": [-99.135025, 19.437884, 0.0]
      }
    },
    {
      "type": "Feature",
      "properties": {
        "SISTEMA": "Metrobús",
        "NOMBRE": "Teatro Blanquita",
        "LINEA": "04",
        "EST": "07",
        "CVE_EST": "MB0407",
        "CVE_EOD17": "11148",
        "TIPO": "Intermedia",
        "ALCALDIAS": "Cuauhtémoc",
        "AÑO": 2012
      },
      "geometry": {
        "type": "Point",
        "coordinates": [-99.139973, 19.438636, 0.0]
      }
    },
    {
      "type": "Feature",
      "properties": {
        "SISTEMA": "Metrobús",
        "NOMBRE": "Teatro Blanquita",
        "LINEA": "04",
        "EST": "07",
        "CVE_EST": "MB0407",
        "CVE_EOD17": "11148",
        "TIPO": "Intermedia",
        "ALCALDIAS": "Cuauhtémoc",
        "AÑO": 2012
      },
      "geometry": {
        "type": "Point",
        "coordinates": [-99.139085, 19.438428, 0.0]
      }
    },
    {
      "type": "Feature",
      "properties": {
        "SISTEMA": "Metrobús",
        "NOMBRE": "Bellas Artes",
        "LINEA": "04",
        "EST": "06",
        "CVE_EST": "MB0406",
        "CVE_EOD17": "11117",
        "TIPO": "Intermedia",
        "ALCALDIAS": "Cuauhtémoc",
        "AÑO": 2012
      },
      "geometry": {
        "type": "Point",
        "coordinates": [-99.141717, 19.436405, 0.0]
      }
    },
    {
      "type": "Feature",
      "properties": {
        "SISTEMA": "Metrobús",
        "NOMBRE": "Bellas Artes",
        "LINEA": "04",
        "EST": "06",
        "CVE_EST": "MB0406",
        "CVE_EOD17": "11117",
        "TIPO": "Intermedia",
        "ALCALDIAS": "Cuauhtémoc",
        "AÑO": 2012
      },
      "geometry": {
        "type": "Point",
        "coordinates": [-99.141821, 19.436407, 0.0]
      }
    },
    {
      "type": "Feature",
      "properties": {
        "SISTEMA": "Metrobús",
        "NOMBRE": "Hidalgo",
        "LINEA": "04",
        "EST": "05",
        "CVE_EST": "MB0405",
        "CVE_EOD17": "11128",
        "TIPO": "Transbordo",
        "ALCALDIAS": "Cuauhtémoc",
        "AÑO": 2012
      },
      "geometry": {
        "type": "Point",
        "coordinates": [-99.14615, 19.437298, 0.0]
      }
    },
    {
      "type": "Feature",
      "properties": {
        "SISTEMA": "Metrobús",
        "NOMBRE": "Hidalgo",
        "LINEA": "04",
        "EST": "05",
        "CVE_EST": "MB0405",
        "CVE_EOD17": "11128",
        "TIPO": "Transbordo",
        "ALCALDIAS": "Cuauhtémoc",
        "AÑO": 2012
      },
      "geometry": {
        "type": "Point",
        "coordinates": [-99.146212, 19.43728, 0.0]
      }
    },
    {
      "type": "Feature",
      "properties": {
        "SISTEMA": "Metrobús",
        "NOMBRE": "Museo San Carlos",
        "LINEA": "04",
        "EST": "04",
        "CVE_EST": "MB0404",
        "CVE_EOD17": "11140",
        "TIPO": "Intermedia",
        "ALCALDIAS": "Cuauhtémoc",
        "AÑO": 2012
      },
      "geometry": {
        "type": "Point",
        "coordinates": [-99.150783, 19.438274, 0.0]
      }
    },
    {
      "type": "Feature",
      "properties": {
        "SISTEMA": "Metrobús",
        "NOMBRE": "Museo San Carlos",
        "LINEA": "04",
        "EST": "04",
        "CVE_EST": "MB0404",
        "CVE_EOD17": "11140",
        "TIPO": "Intermedia",
        "ALCALDIAS": "Cuauhtémoc",
        "AÑO": 2012
      },
      "geometry": {
        "type": "Point",
        "coordinates": [-99.150603, 19.438226, 0.0]
      }
    },
    {
      "type": "Feature",
      "properties": {
        "SISTEMA": "Metrobús",
        "NOMBRE": "Buenavista. Línea 4",
        "LINEA": "04",
        "EST": "01",
        "CVE_EST": "MB0401",
        "CVE_EOD17": "11118",
        "TIPO": "Terminal / Transbordo",
        "ALCALDIAS": "Cuauhtémoc",
        "AÑO": 2012
      },
      "geometry": {
        "type": "Point",
        "coordinates": [-99.152271, 19.444863, 0.0]
      }
    },
    {
      "type": "Feature",
      "properties": {
        "SISTEMA": "Metrobús",
        "NOMBRE": "Pantitlán",
        "LINEA": "04",
        "EST": "38",
        "CVE_EST": "MB0438",
        "CVE_EOD17": null,
        "TIPO": "Terminal",
        "ALCALDIAS": "Venustiano Carranza",
        "AÑO": 2021
      },
      "geometry": {
        "type": "Point",
        "coordinates": [-99.073454, 19.417065, 0.0]
      }
    },
    {
      "type": "Feature",
      "properties": {
        "SISTEMA": "Metrobús",
        "NOMBRE": "Calle 6",
        "LINEA": "04",
        "EST": "39",
        "CVE_EST": "MB0439",
        "CVE_EOD17": null,
        "TIPO": "Intermedia",
        "ALCALDIAS": "Venustiano Carranza / Iztacalco",
        "AÑO": 2022
      },
      "geometry": {
        "type": "Point",
        "coordinates": [-99.058398, 19.421148, 0.0]
      }
    },
    {
      "type": "Feature",
      "properties": {
        "SISTEMA": "Metrobús",
        "NOMBRE": "Alameda Oriente",
        "LINEA": "04",
        "EST": "40",
        "CVE_EST": "MB0440",
        "CVE_EOD17": null,
        "TIPO": "Terminal",
        "ALCALDIAS": "Venustiano Carranza / Estado de México - Nezahualcóyotl",
        "AÑO": 2022
      },
      "geometry": {
        "type": "Point",
        "coordinates": [-99.05327, 19.430752, 0.0]
      }
    },
    {
      "type": "Feature",
      "properties": {
        "SISTEMA": "Metrobús",
        "NOMBRE": "Indios Verdes",
        "LINEA": "01",
        "EST": "01",
        "CVE_EST": "MB0101",
        "CVE_EOD17": "11024",
        "TIPO": "Terminal / Transbordo",
        "ALCALDIAS": "Gustavo A. Madero",
        "AÑO": 2005
      },
      "geometry": {
        "type": "Point",
        "coordinates": [-99.119716623951476, 19.496820269308746, 0.0]
      }
    },
    {
      "type": "Feature",
      "properties": {
        "SISTEMA": "Metrobús",
        "NOMBRE": "Deportivo 18 de Marzo",
        "LINEA": "01",
        "EST": "02",
        "CVE_EST": "MB0102",
        "CVE_EOD17": "11013",
        "TIPO": "Transbordo",
        "ALCALDIAS": "Gustavo A. Madero",
        "AÑO": 2005
      },
      "geometry": {
        "type": "Point",
        "coordinates": [-99.124531698777062, 19.486285379281277, 0.0]
      }
    },
    {
      "type": "Feature",
      "properties": {
        "SISTEMA": "Metrobús",
        "NOMBRE": "Eúzkaro",
        "LINEA": "01",
        "EST": "03",
        "CVE_EST": "MB0103",
        "CVE_EOD17": "11018",
        "TIPO": "Intermedia",
        "ALCALDIAS": "Gustavo A. Madero",
        "AÑO": 2005
      },
      "geometry": {
        "type": "Point",
        "coordinates": [-99.127632233876966, 19.482519101724726, 0.0]
      }
    },
    {
      "type": "Feature",
      "properties": {
        "SISTEMA": "Metrobús",
        "NOMBRE": "Potrero",
        "LINEA": "01",
        "EST": "04",
        "CVE_EST": "MB0104",
        "CVE_EOD17": "11038",
        "TIPO": "Intermedia",
        "ALCALDIAS": "Gustavo A. Madero",
        "AÑO": 2005
      },
      "geometry": {
        "type": "Point",
        "coordinates": [-99.132468238436829, 19.476638471332368, 0.0]
      }
    },
    {
      "type": "Feature",
      "properties": {
        "SISTEMA": "Metrobús",
        "NOMBRE": "La Raza",
        "LINEA": "01",
        "EST": "05",
        "CVE_EST": "MB0105",
        "CVE_EOD17": "11029",
        "TIPO": "Transbordo",
        "ALCALDIAS": "Gustavo A. Madero",
        "AÑO": 2005
      },
      "geometry": {
        "type": "Point",
        "coordinates": [-99.138986664144284, 19.468700050075963, 0.0]
      }
    },
    {
      "type": "Feature",
      "properties": {
        "SISTEMA": "Metrobús",
        "NOMBRE": "Circuito",
        "LINEA": "01",
        "EST": "06",
        "CVE_EST": "MB0106",
        "CVE_EOD17": "11008",
        "TIPO": "Transbordo",
        "ALCALDIAS": "Cuauhtémoc",
        "AÑO": 2005
      },
      "geometry": {
        "type": "Point",
        "coordinates": [-99.144006768215618, 19.462612766654022, 0.0]
      }
    },
    {
      "type": "Feature",
      "properties": {
        "SISTEMA": "Metrobús",
        "NOMBRE": "San Simón",
        "LINEA": "01",
        "EST": "07",
        "CVE_EST": "MB0107",
        "CVE_EOD17": "11042",
        "TIPO": "Intermedia",
        "ALCALDIAS": "Cuauhtémoc",
        "AÑO": 2005
      },
      "geometry": {
        "type": "Point",
        "coordinates": [-99.146424345073157, 19.459632536014841, 0.0]
      }
    },
    {
      "type": "Feature",
      "properties": {
        "SISTEMA": "Metrobús",
        "NOMBRE": "Manuel González",
        "LINEA": "01",
        "EST": "08",
        "CVE_EST": "MB0108",
        "CVE_EOD17": "11030",
        "TIPO": "Intermedia",
        "ALCALDIAS": "Cuauhtémoc",
        "AÑO": 2005
      },
      "geometry": {
        "type": "Point",
        "coordinates": [-99.149388515826146, 19.456735562915632, 0.0]
      }
    },
    {
      "type": "Feature",
      "properties": {
        "SISTEMA": "Metrobús",
        "NOMBRE": "Buenavista",
        "LINEA": "01",
        "EST": "09",
        "CVE_EST": "MB0109",
        "CVE_EOD17": "11004",
        "TIPO": "Transbordo",
        "ALCALDIAS": "Cuauhtémoc",
        "AÑO": 2005
      },
      "geometry": {
        "type": "Point",
        "coordinates": [-99.153130665258146, 19.446837951491194, 0.0]
      }
    },
    {
      "type": "Feature",
      "properties": {
        "SISTEMA": "Metrobús",
        "NOMBRE": "El Chopo",
        "LINEA": "01",
        "EST": "10",
        "CVE_EST": "MB0110",
        "CVE_EOD17": "11017",
        "TIPO": "Intermedia",
        "ALCALDIAS": "Cuauhtémoc",
        "AÑO": 2005
      },
      "geometry": {
        "type": "Point",
        "coordinates": [-99.154411133824539, 19.443345082590103, 0.0]
      }
    },
    {
      "type": "Feature",
      "properties": {
        "SISTEMA": "Metrobús",
        "NOMBRE": "Revolución",
        "LINEA": "01",
        "EST": "11",
        "CVE_EST": "MB0111",
        "CVE_EOD17": "11040",
        "TIPO": "Intermedia",
        "ALCALDIAS": "Cuauhtémoc",
        "AÑO": 2005
      },
      "geometry": {
        "type": "Point",
        "coordinates": [-99.155410379801921, 19.440352788005459, 0.0]
      }
    },
    {
      "type": "Feature",
      "properties": {
        "SISTEMA": "Metrobús",
        "NOMBRE": "Plaza de la República",
        "LINEA": "01",
        "EST": "12",
        "CVE_EST": "MB0112",
        "CVE_EOD17": "11036",
        "TIPO": "Transbordo",
        "ALCALDIAS": "Cuauhtémoc",
        "AÑO": 2005
      },
      "geometry": {
        "type": "Point",
        "coordinates": [-99.157318741940998, 19.436045966675934, 0.0]
      }
    },
    {
      "type": "Feature",
      "properties": {
        "SISTEMA": "Metrobús",
        "NOMBRE": "Reforma",
        "LINEA": "01",
        "EST": "13",
        "CVE_EST": "MB0113",
        "CVE_EOD17": "11039",
        "TIPO": "Transbordo",
        "ALCALDIAS": "Cuauhtémoc",
        "AÑO": 2005
      },
      "geometry": {
        "type": "Point",
        "coordinates": [-99.158714509731368, 19.432899100304859, 0.0]
      }
    },
    {
      "type": "Feature",
      "properties": {
        "SISTEMA": "Metrobús",
        "NOMBRE": "Hamburgo",
        "LINEA": "01",
        "EST": "14",
        "CVE_EST": "MB0114",
        "CVE_EOD17": "11023",
        "TIPO": "Transbordo",
        "ALCALDIAS": "Cuauhtémoc",
        "AÑO": 2005
      },
      "geometry": {
        "type": "Point",
        "coordinates": [-99.161235417910063, 19.427524408488079, 0.0]
      }
    },
    {
      "type": "Feature",
      "properties": {
        "SISTEMA": "Metrobús",
        "NOMBRE": "Insurgentes",
        "LINEA": "01",
        "EST": "15",
        "CVE_EST": "MB0115",
        "CVE_EOD17": "11022",
        "TIPO": "Terminal",
        "ALCALDIAS": "Cuauhtémoc",
        "AÑO": 2005
      },
      "geometry": {
        "type": "Point",
        "coordinates": [-99.162883816561504, 19.423720529286115, 0.0]
      }
    },
    {
      "type": "Feature",
      "properties": {
        "SISTEMA": "Metrobús",
        "NOMBRE": "Durango",
        "LINEA": "01",
        "EST": "16",
        "CVE_EST": "MB0116",
        "CVE_EOD17": "11015",
        "TIPO": "Intermedia",
        "ALCALDIAS": "Cuauhtémoc",
        "AÑO": 2005
      },
      "geometry": {
        "type": "Point",
        "coordinates": [-99.164055629466986, 19.419932751962484, 0.0]
      }
    },
    {
      "type": "Feature",
      "properties": {
        "SISTEMA": "Metrobús",
        "NOMBRE": "Álvaro Obregón",
        "LINEA": "01",
        "EST": "17",
        "CVE_EST": "MB0117",
        "CVE_EOD17": "11002",
        "TIPO": "Intermedia",
        "ALCALDIAS": "Cuauhtémoc",
        "AÑO": 2005
      },
      "geometry": {
        "type": "Point",
        "coordinates": [-99.165055816293773, 19.416550991835987, 0.0]
      }
    },
    {
      "type": "Feature",
      "properties": {
        "SISTEMA": "Metrobús",
        "NOMBRE": "Sonora",
        "LINEA": "01",
        "EST": "18",
        "CVE_EST": "MB0118",
        "CVE_EOD17": "11044",
        "TIPO": "Intermedia",
        "ALCALDIAS": "Cuauhtémoc",
        "AÑO": 2005
      },
      "geometry": {
        "type": "Point",
        "coordinates": [-99.16612421930985, 19.413271925410815, 0.0]
      }
    },
    {
      "type": "Feature",
      "properties": {
        "SISTEMA": "Metrobús",
        "NOMBRE": "Campeche",
        "LINEA": "01",
        "EST": "19",
        "CVE_EST": "MB0119",
        "CVE_EOD17": "11005",
        "TIPO": "Intermedia",
        "ALCALDIAS": "Cuauhtémoc",
        "AÑO": 2005
      },
      "geometry": {
        "type": "Point",
        "coordinates": [-99.167265593197101, 19.409768753876367, 0.0]
      }
    },
    {
      "type": "Feature",
      "properties": {
        "SISTEMA": "Metrobús",
        "NOMBRE": "Chilpancingo",
        "LINEA": "01",
        "EST": "20",
        "CVE_EST": "MB0120",
        "CVE_EOD17": "11007",
        "TIPO": "Intermedia",
        "ALCALDIAS": "Cuauhtémoc",
        "AÑO": 2005
      },
      "geometry": {
        "type": "Point",
        "coordinates": [-99.168304860995363, 19.406578833117695, 0.0]
      }
    },
    {
      "type": "Feature",
      "properties": {
        "SISTEMA": "Metrobús",
        "NOMBRE": "Nuevo León",
        "LINEA": "01",
        "EST": "21",
        "CVE_EST": "MB0121",
        "CVE_EOD17": "11032",
        "TIPO": "Transbordo",
        "ALCALDIAS": "Cuauhtémoc",
        "AÑO": 2005
      },
      "geometry": {
        "type": "Point",
        "coordinates": [-99.169783855731154, 19.402043181971649, 0.0]
      }
    },
    {
      "type": "Feature",
      "properties": {
        "SISTEMA": "Metrobús",
        "NOMBRE": "La Piedad",
        "LINEA": "01",
        "EST": "22",
        "CVE_EST": "MB0122",
        "CVE_EOD17": "11028",
        "TIPO": "Transbordo",
        "ALCALDIAS": "Benito Juárez",
        "AÑO": 2005
      },
      "geometry": {
        "type": "Point",
        "coordinates": [-99.17111120244833, 19.397970337893266, 0.0]
      }
    },
    {
      "type": "Feature",
      "properties": {
        "SISTEMA": "Metrobús",
        "NOMBRE": "Polifórum",
        "LINEA": "01",
        "EST": "23",
        "CVE_EST": "MB0123",
        "CVE_EOD17": "11037",
        "TIPO": "Transbordo",
        "ALCALDIAS": "Benito Juárez",
        "AÑO": 2005
      },
      "geometry": {
        "type": "Point",
        "coordinates": [-99.172625018595184, 19.393299203269631, 0.0]
      }
    },
    {
      "type": "Feature",
      "properties": {
        "SISTEMA": "Metrobús",
        "NOMBRE": "Nápoles",
        "LINEA": "01",
        "EST": "24",
        "CVE_EST": "MB0124",
        "CVE_EOD17": "11031",
        "TIPO": "Transbordo",
        "ALCALDIAS": "Benito Juárez",
        "AÑO": 2005
      },
      "geometry": {
        "type": "Point",
        "coordinates": [-99.173794411452704, 19.389690652430065, 0.0]
      }
    },
    {
      "type": "Feature",
      "properties": {
        "SISTEMA": "Metrobús",
        "NOMBRE": "Colonia del Valle",
        "LINEA": "01",
        "EST": "25",
        "CVE_EST": "MB0125",
        "CVE_EOD17": "11011",
        "TIPO": "Transbordo",
        "ALCALDIAS": "Benito Juárez",
        "AÑO": 2005
      },
      "geometry": {
        "type": "Point",
        "coordinates": [-99.175092070461318, 19.385686102673304, 0.0]
      }
    },
    {
      "type": "Feature",
      "properties": {
        "SISTEMA": "Metrobús",
        "NOMBRE": "Ciudad de los Deportes",
        "LINEA": "01",
        "EST": "26",
        "CVE_EST": "MB0126",
        "CVE_EOD17": "11009",
        "TIPO": "Intermedia",
        "ALCALDIAS": "Benito Juárez",
        "AÑO": 2005
      },
      "geometry": {
        "type": "Point",
        "coordinates": [-99.176140161282774, 19.382451565772389, 0.0]
      }
    },
    {
      "type": "Feature",
      "properties": {
        "SISTEMA": "Metrobús",
        "NOMBRE": "Parque Hundido",
        "LINEA": "01",
        "EST": "27",
        "CVE_EST": "MB0127",
        "CVE_EOD17": "11034",
        "TIPO": "Intermedia",
        "ALCALDIAS": "Benito Juárez",
        "AÑO": 2005
      },
      "geometry": {
        "type": "Point",
        "coordinates": [-99.177068402693493, 19.379586786836668, 0.0]
      }
    },
    {
      "type": "Feature",
      "properties": {
        "SISTEMA": "Metrobús",
        "NOMBRE": "Félix Cuevas",
        "LINEA": "01",
        "EST": "28",
        "CVE_EST": "MB0128",
        "CVE_EOD17": "11019",
        "TIPO": "Intermedia",
        "ALCALDIAS": "Benito Juárez",
        "AÑO": 2005
      },
      "geometry": {
        "type": "Point",
        "coordinates": [-99.178796527600952, 19.37425309507362, 0.0]
      }
    },
    {
      "type": "Feature",
      "properties": {
        "SISTEMA": "Metrobús",
        "NOMBRE": "Río Churubusco",
        "LINEA": "01",
        "EST": "29",
        "CVE_EST": "MB0129",
        "CVE_EOD17": "11041",
        "TIPO": "Intermedia",
        "ALCALDIAS": "Benito Juárez",
        "AÑO": 2005
      },
      "geometry": {
        "type": "Point",
        "coordinates": [-99.180569811026075, 19.368779651326172, 0.0]
      }
    },
    {
      "type": "Feature",
      "properties": {
        "SISTEMA": "Metrobús",
        "NOMBRE": "Teatro de los Insurgentes",
        "LINEA": "01",
        "EST": "30",
        "CVE_EST": "MB0130",
        "CVE_EOD17": "11045",
        "TIPO": "Intermedia",
        "ALCALDIAS": "Benito Juárez",
        "AÑO": 2005
      },
      "geometry": {
        "type": "Point",
        "coordinates": [-99.181825200260519, 19.3649263909228, 0.0]
      }
    },
    {
      "type": "Feature",
      "properties": {
        "SISTEMA": "Metrobús",
        "NOMBRE": "José María Velasco",
        "LINEA": "01",
        "EST": "31",
        "CVE_EST": "MB0131",
        "CVE_EOD17": "11025",
        "TIPO": "Intermedia",
        "ALCALDIAS": "Benito Juárez / Álvaro Obregón",
        "AÑO": 2005
      },
      "geometry": {
        "type": "Point",
        "coordinates": [-99.182849774971388, 19.361758989492579, 0.0]
      }
    },
    {
      "type": "Feature",
      "properties": {
        "SISTEMA": "Metrobús",
        "NOMBRE": "Francia",
        "LINEA": "01",
        "EST": "32",
        "CVE_EST": "MB0132",
        "CVE_EOD17": "11020",
        "TIPO": "Intermedia",
        "ALCALDIAS": "Álvaro Obregón",
        "AÑO": 2005
      },
      "geometry": {
        "type": "Point",
        "coordinates": [-99.183911556265144, 19.358476430441904, 0.0]
      }
    },
    {
      "type": "Feature",
      "properties": {
        "SISTEMA": "Metrobús",
        "NOMBRE": "Olivo",
        "LINEA": "01",
        "EST": "33",
        "CVE_EST": "MB0133",
        "CVE_EOD17": "11033",
        "TIPO": "Intermedia",
        "ALCALDIAS": "Álvaro Obregón",
        "AÑO": 2005
      },
      "geometry": {
        "type": "Point",
        "coordinates": [-99.18515664834338, 19.35462698244498, 0.0]
      }
    },
    {
      "type": "Feature",
      "properties": {
        "SISTEMA": "Metrobús",
        "NOMBRE": "Altavista",
        "LINEA": "01",
        "EST": "34",
        "CVE_EST": "MB0134",
        "CVE_EOD17": "11001",
        "TIPO": "Intermedia",
        "ALCALDIAS": "Álvaro Obregón",
        "AÑO": 2005
      },
      "geometry": {
        "type": "Point",
        "coordinates": [-99.186356402038257, 19.350903849361121, 0.0]
      }
    },
    {
      "type": "Feature",
      "properties": {
        "SISTEMA": "Metrobús",
        "NOMBRE": "La Bombilla",
        "LINEA": "01",
        "EST": "35",
        "CVE_EST": "MB0135",
        "CVE_EOD17": "11026",
        "TIPO": "Intermedia",
        "ALCALDIAS": "Álvaro Obregón",
        "AÑO": 2005
      },
      "geometry": {
        "type": "Point",
        "coordinates": [-99.187726217936813, 19.346818513886827, 0.0]
      }
    },
    {
      "type": "Feature",
      "properties": {
        "SISTEMA": "Metrobús",
        "NOMBRE": "Doctor Gálvez",
        "LINEA": "01",
        "EST": "36",
        "CVE_EST": "MB0136",
        "CVE_EOD17": "11014",
        "TIPO": "Terminal",
        "ALCALDIAS": "Álvaro Obregón",
        "AÑO": 2005
      },
      "geometry": {
        "type": "Point",
        "coordinates": [-99.1900369636448, 19.340707214064032, 0.0]
      }
    },
    {
      "type": "Feature",
      "properties": {
        "SISTEMA": "Metrobús",
        "NOMBRE": "Ciudad Universitaria",
        "LINEA": "01",
        "EST": "37",
        "CVE_EST": "MB0137",
        "CVE_EOD17": "11010",
        "TIPO": "Intermedia",
        "ALCALDIAS": "Coyoacán",
        "AÑO": 2008
      },
      "geometry": {
        "type": "Point",
        "coordinates": [-99.188472950777168, 19.322947364177551, 0.0]
      }
    },
    {
      "type": "Feature",
      "properties": {
        "SISTEMA": "Metrobús",
        "NOMBRE": "Centro Cultural Universitario",
        "LINEA": "01",
        "EST": "38",
        "CVE_EST": "MB0138",
        "CVE_EOD17": "11006",
        "TIPO": "Intermedia",
        "ALCALDIAS": "Coyoacán",
        "AÑO": 2008
      },
      "geometry": {
        "type": "Point",
        "coordinates": [-99.187526952614562, 19.315162166987154, 0.0]
      }
    },
    {
      "type": "Feature",
      "properties": {
        "SISTEMA": "Metrobús",
        "NOMBRE": "Perisur",
        "LINEA": "01",
        "EST": "39",
        "CVE_EST": "MB0139",
        "CVE_EOD17": "11035",
        "TIPO": "Intermedia",
        "ALCALDIAS": "Coyoacán",
        "AÑO": 2008
      },
      "geometry": {
        "type": "Point",
        "coordinates": [-99.186126697490764, 19.304109632052686, 0.0]
      }
    },
    {
      "type": "Feature",
      "properties": {
        "SISTEMA": "Metrobús",
        "NOMBRE": "Villa Olímpica",
        "LINEA": "01",
        "EST": "40",
        "CVE_EST": "MB0140",
        "CVE_EOD17": "11046",
        "TIPO": "Intermedia",
        "ALCALDIAS": "Tlalpan",
        "AÑO": 2008
      },
      "geometry": {
        "type": "Point",
        "coordinates": [-99.185514812123529, 19.299091764377572, 0.0]
      }
    },
    {
      "type": "Feature",
      "properties": {
        "SISTEMA": "Metrobús",
        "NOMBRE": "Corregidora",
        "LINEA": "01",
        "EST": "41",
        "CVE_EST": "MB0141",
        "CVE_EOD17": "11012",
        "TIPO": "Intermedia",
        "ALCALDIAS": "Tlalpan",
        "AÑO": 2008
      },
      "geometry": {
        "type": "Point",
        "coordinates": [-99.18103173192884, 19.294070084678502, 0.0]
      }
    },
    {
      "type": "Feature",
      "properties": {
        "SISTEMA": "Metrobús",
        "NOMBRE": "Ayuntamiento",
        "LINEA": "01",
        "EST": "42",
        "CVE_EST": "MB0142",
        "CVE_EOD17": "11003",
        "TIPO": "Intermedia",
        "ALCALDIAS": "Tlalpan",
        "AÑO": 2008
      },
      "geometry": {
        "type": "Point",
        "coordinates": [-99.177536690264304, 19.292595463978948, 0.0]
      }
    },
    {
      "type": "Feature",
      "properties": {
        "SISTEMA": "Metrobús",
        "NOMBRE": "Fuentes Brotantes",
        "LINEA": "01",
        "EST": "43",
        "CVE_EST": "MB0143",
        "CVE_EOD17": "11021",
        "TIPO": "Intermedia",
        "ALCALDIAS": "Tlalpan",
        "AÑO": 2008
      },
      "geometry": {
        "type": "Point",
        "coordinates": [-99.174597571640106, 19.288103587844745, 0.0]
      }
    },
    {
      "type": "Feature",
      "properties": {
        "SISTEMA": "Metrobús",
        "NOMBRE": "Santa Úrsula",
        "LINEA": "01",
        "EST": "44",
        "CVE_EST": "MB0144",
        "CVE_EOD17": "11043",
        "TIPO": "Intermedia",
        "ALCALDIAS": "Tlalpan",
        "AÑO": 2008
      },
      "geometry": {
        "type": "Point",
        "coordinates": [-99.175301074628635, 19.283262764240369, 0.0]
      }
    },
    {
      "type": "Feature",
      "properties": {
        "SISTEMA": "Metrobús",
        "NOMBRE": "La Joya",
        "LINEA": "01",
        "EST": "45",
        "CVE_EST": "MB0145",
        "CVE_EOD17": "11027",
        "TIPO": "Intermedia",
        "ALCALDIAS": "Tlalpan",
        "AÑO": 2008
      },
      "geometry": {
        "type": "Point",
        "coordinates": [-99.169992573130386, 19.280322133742757, 0.0]
      }
    },
    {
      "type": "Feature",
      "properties": {
        "SISTEMA": "Metrobús",
        "NOMBRE": "El Caminero",
        "LINEA": "01",
        "EST": "46",
        "CVE_EST": "MB0146",
        "CVE_EOD17": "11016",
        "TIPO": "Terminal",
        "ALCALDIAS": "Tlalpan",
        "AÑO": 2008
      },
      "geometry": {
        "type": "Point",
        "coordinates": [-99.169077651687871, 19.279313771100377, 0.0]
      }
    },
    {
      "type": "Feature",
      "properties": {
        "SISTEMA": "Metrobús",
        "NOMBRE": "Tacubaya",
        "LINEA": "02",
        "EST": "01",
        "CVE_EST": "MB0201",
        "CVE_EOD17": "11077",
        "TIPO": "Terminal",
        "ALCALDIAS": "Miguel Hidalgo",
        "AÑO": 2008
      },
      "geometry": {
        "type": "Point",
        "coordinates": [-99.187007763261178, 19.401994760429702, 0.0]
      }
    },
    {
      "type": "Feature",
      "properties": {
        "SISTEMA": "Metrobús",
        "NOMBRE": "Parque Lira",
        "LINEA": "02",
        "EST": "02",
        "CVE_EST": "MB0202",
        "CVE_EOD17": "11070",
        "TIPO": "Intermedia",
        "ALCALDIAS": "Miguel Hidalgo",
        "AÑO": 2008
      },
      "geometry": {
        "type": "Point",
        "coordinates": [-99.189104363520798, 19.407793172832054, 0.0]
      }
    },
    {
      "type": "Feature",
      "properties": {
        "SISTEMA": "Metrobús",
        "NOMBRE": "Antonio Maceo",
        "LINEA": "02",
        "EST": "03",
        "CVE_EST": "MB0203",
        "CVE_EOD17": "11050",
        "TIPO": "Intermedia",
        "ALCALDIAS": "Miguel Hidalgo",
        "AÑO": 2008
      },
      "geometry": {
        "type": "Point",
        "coordinates": [-99.185900865781136, 19.404874624595095, 0.0]
      }
    },
    {
      "type": "Feature",
      "properties": {
        "SISTEMA": "Metrobús",
        "NOMBRE": "De la Salle",
        "LINEA": "02",
        "EST": "04",
        "CVE_EST": "MB0204",
        "CVE_EOD17": "11057",
        "TIPO": "Intermedia",
        "ALCALDIAS": "Cuauhtémoc / Miguel Hidalgo",
        "AÑO": 2008
      },
      "geometry": {
        "type": "Point",
        "coordinates": [-99.183508848739166, 19.407589548910522, 0.0]
      }
    },
    {
      "type": "Feature",
      "properties": {
        "SISTEMA": "Metrobús",
        "NOMBRE": "Patriotismo",
        "LINEA": "02",
        "EST": "05",
        "CVE_EST": "MB0205",
        "CVE_EOD17": "11071",
        "TIPO": "Intermedia",
        "ALCALDIAS": "Cuauhtémoc / Miguel Hidalgo",
        "AÑO": 2008
      },
      "geometry": {
        "type": "Point",
        "coordinates": [-99.177371481203267, 19.405566764488491, 0.0]
      }
    },
    {
      "type": "Feature",
      "properties": {
        "SISTEMA": "Metrobús",
        "NOMBRE": "Escandón",
        "LINEA": "02",
        "EST": "06",
        "CVE_EST": "MB0206",
        "CVE_EOD17": "11061",
        "TIPO": "Intermedia",
        "ALCALDIAS": "Cuauhtémoc / Miguel Hidalgo",
        "AÑO": 2008
      },
      "geometry": {
        "type": "Point",
        "coordinates": [-99.173828899029203, 19.40440985176069, 0.0]
      }
    },
    {
      "type": "Feature",
      "properties": {
        "SISTEMA": "Metrobús",
        "NOMBRE": "Nuevo León",
        "LINEA": "02",
        "EST": "07",
        "CVE_EST": "MB0207",
        "CVE_EOD17": "11069",
        "TIPO": "Transbordo",
        "ALCALDIAS": "Cuauhtémoc / Miguel Hidalgo",
        "AÑO": 2008
      },
      "geometry": {
        "type": "Point",
        "coordinates": [-99.170407934115872, 19.403500674595442, 0.0]
      }
    },
    {
      "type": "Feature",
      "properties": {
        "SISTEMA": "Metrobús",
        "NOMBRE": "Viaducto",
        "LINEA": "02",
        "EST": "08",
        "CVE_EST": "MB0208",
        "CVE_EOD17": "11081",
        "TIPO": "Intermedia",
        "ALCALDIAS": "Cuauhtémoc / Benito Juárez",
        "AÑO": 2008
      },
      "geometry": {
        "type": "Point",
        "coordinates": [-99.168093340447896, 19.401314543451836, 0.0]
      }
    },
    {
      "type": "Feature",
      "properties": {
        "SISTEMA": "Metrobús",
        "NOMBRE": "Amores",
        "LINEA": "02",
        "EST": "09",
        "CVE_EST": "MB0209",
        "CVE_EOD17": "11048",
        "TIPO": "Intermedia",
        "ALCALDIAS": "Benito Juárez",
        "AÑO": 2008
      },
      "geometry": {
        "type": "Point",
        "coordinates": [-99.163815747597212, 19.396878357792492, 0.0]
      }
    },
    {
      "type": "Feature",
      "properties": {
        "SISTEMA": "Metrobús",
        "NOMBRE": "Etiopía",
        "LINEA": "02",
        "EST": "10",
        "CVE_EST": "MB0210",
        "CVE_EOD17": "11072",
        "TIPO": "Terminal / Transbordo",
        "ALCALDIAS": "Benito Juárez",
        "AÑO": 2008
      },
      "geometry": {
        "type": "Point",
        "coordinates": [-99.155001523337418, 19.395841134451043, 0.0]
      }
    },
    {
      "type": "Feature",
      "properties": {
        "SISTEMA": "Metrobús",
        "NOMBRE": "Doctor Vértiz",
        "LINEA": "02",
        "EST": "11",
        "CVE_EST": "MB0211",
        "CVE_EOD17": "11059",
        "TIPO": "Intermedia",
        "ALCALDIAS": "Benito Juárez",
        "AÑO": 2008
      },
      "geometry": {
        "type": "Point",
        "coordinates": [-99.151707679123987, 19.395607559960212, 0.0]
      }
    },
    {
      "type": "Feature",
      "properties": {
        "SISTEMA": "Metrobús",
        "NOMBRE": "Centro SCOP",
        "LINEA": "02",
        "EST": "12",
        "CVE_EST": "MB0212",
        "CVE_EOD17": "11054",
        "TIPO": "Intermedia",
        "ALCALDIAS": "Benito Juárez",
        "AÑO": 2008
      },
      "geometry": {
        "type": "Point",
        "coordinates": [-99.146755680440108, 19.39524803497272, 0.0]
      }
    },
    {
      "type": "Feature",
      "properties": {
        "SISTEMA": "Metrobús",
        "NOMBRE": "Álamos",
        "LINEA": "02",
        "EST": "13",
        "CVE_EST": "MB0213",
        "CVE_EOD17": "11047",
        "TIPO": "Intermedia",
        "ALCALDIAS": "Benito Juárez",
        "AÑO": 2008
      },
      "geometry": {
        "type": "Point",
        "coordinates": [-99.142942796851443, 19.394753096944751, 0.0]
      }
    },
    {
      "type": "Feature",
      "properties": {
        "SISTEMA": "Metrobús",
        "NOMBRE": "Xola",
        "LINEA": "02",
        "EST": "14",
        "CVE_EST": "MB0214",
        "CVE_EOD17": "11082",
        "TIPO": "Intermedia",
        "ALCALDIAS": "Benito Juárez",
        "AÑO": 2008
      },
      "geometry": {
        "type": "Point",
        "coordinates": [-99.140251370737133, 19.394365049136049, 0.0]
      }
    },
    {
      "type": "Feature",
      "properties": {
        "SISTEMA": "Metrobús",
        "NOMBRE": "Las Américas",
        "LINEA": "02",
        "EST": "15",
        "CVE_EST": "MB0215",
        "CVE_EOD17": "11066",
        "TIPO": "Intermedia",
        "ALCALDIAS": "Benito Juárez",
        "AÑO": 2008
      },
      "geometry": {
        "type": "Point",
        "coordinates": [-99.134349084081421, 19.393459454690095, 0.0]
      }
    },
    {
      "type": "Feature",
      "properties": {
        "SISTEMA": "Metrobús",
        "NOMBRE": "Andrés Molina",
        "LINEA": "02",
        "EST": "16",
        "CVE_EST": "MB0216",
        "CVE_EOD17": "11049",
        "TIPO": "Intermedia",
        "ALCALDIAS": "Iztacalco",
        "AÑO": 2008
      },
      "geometry": {
        "type": "Point",
        "coordinates": [-99.129700104868903, 19.397677434417723, 0.0]
      }
    },
    {
      "type": "Feature",
      "properties": {
        "SISTEMA": "Metrobús",
        "NOMBRE": "La Viga",
        "LINEA": "02",
        "EST": "17",
        "CVE_EST": "MB0217",
        "CVE_EOD17": "11065",
        "TIPO": "Intermedia",
        "ALCALDIAS": "Iztacalco",
        "AÑO": 2008
      },
      "geometry": {
        "type": "Point",
        "coordinates": [-99.124562306785691, 19.398064619795605, 0.0]
      }
    },
    {
      "type": "Feature",
      "properties": {
        "SISTEMA": "Metrobús",
        "NOMBRE": "Coyuya",
        "LINEA": "02",
        "EST": "18",
        "CVE_EST": "MB0218",
        "CVE_EOD17": "11056",
        "TIPO": "Intermedia",
        "ALCALDIAS": "Iztacalco",
        "AÑO": 2008
      },
      "geometry": {
        "type": "Point",
        "coordinates": [-99.116782255054218, 19.398283385365897, 0.0]
      }
    },
    {
      "type": "Feature",
      "properties": {
        "SISTEMA": "Metrobús",
        "NOMBRE": "Metro Coyuya",
        "LINEA": "02",
        "EST": "19",
        "CVE_EST": "MB0219",
        "CVE_EOD17": null,
        "TIPO": "Transbordo",
        "ALCALDIAS": "Iztacalco",
        "AÑO": 2008
      },
      "geometry": {
        "type": "Point",
        "coordinates": [-99.113465167274541, 19.398329416102449, 0.0]
      }
    },
    {
      "type": "Feature",
      "properties": {
        "SISTEMA": "Metrobús",
        "NOMBRE": "Canela",
        "LINEA": "02",
        "EST": "20",
        "CVE_EST": "MB0220",
        "CVE_EOD17": "11052",
        "TIPO": "Intermedia",
        "ALCALDIAS": "Iztacalco",
        "AÑO": 2008
      },
      "geometry": {
        "type": "Point",
        "coordinates": [-99.109337759786015, 19.397848657666984, 0.0]
      }
    },
    {
      "type": "Feature",
      "properties": {
        "SISTEMA": "Metrobús",
        "NOMBRE": "Tlacotal",
        "LINEA": "02",
        "EST": "21",
        "CVE_EST": "MB0221",
        "CVE_EOD17": "11079",
        "TIPO": "Intermedia",
        "ALCALDIAS": "Iztacalco",
        "AÑO": 2008
      },
      "geometry": {
        "type": "Point",
        "coordinates": [-99.103911060476079, 19.397219080500392, 0.0]
      }
    },
    {
      "type": "Feature",
      "properties": {
        "SISTEMA": "Metrobús",
        "NOMBRE": "Goma",
        "LINEA": "02",
        "EST": "22",
        "CVE_EST": "MB0222",
        "CVE_EOD17": "11063",
        "TIPO": "Intermedia",
        "ALCALDIAS": "Iztacalco",
        "AÑO": 2008
      },
      "geometry": {
        "type": "Point",
        "coordinates": [-99.100007198618499, 19.39689074559141, 0.0]
      }
    },
    {
      "type": "Feature",
      "properties": {
        "SISTEMA": "Metrobús",
        "NOMBRE": "Iztacalco",
        "LINEA": "02",
        "EST": "23",
        "CVE_EST": "MB0223",
        "CVE_EOD17": "11064",
        "TIPO": "Intermedia",
        "ALCALDIAS": "Iztacalco",
        "AÑO": 2008
      },
      "geometry": {
        "type": "Point",
        "coordinates": [-99.095957558617101, 19.396547063893621, 0.0]
      }
    },
    {
      "type": "Feature",
      "properties": {
        "SISTEMA": "Metrobús",
        "NOMBRE": "UPIICSA",
        "LINEA": "02",
        "EST": "24",
        "CVE_EST": "MB0224",
        "CVE_EOD17": "11080",
        "TIPO": "Intermedia",
        "ALCALDIAS": "Iztacalco",
        "AÑO": 2008
      },
      "geometry": {
        "type": "Point",
        "coordinates": [-99.090392127217157, 19.393935027363511, 0.0]
      }
    },
    {
      "type": "Feature",
      "properties": {
        "SISTEMA": "Metrobús",
        "NOMBRE": "El Rodeo",
        "LINEA": "02",
        "EST": "25",
        "CVE_EST": "MB0225",
        "CVE_EOD17": "11060",
        "TIPO": "Intermedia",
        "ALCALDIAS": "Iztacalco",
        "AÑO": 2008
      },
      "geometry": {
        "type": "Point",
        "coordinates": [-99.087080244311295, 19.391661319394384, 0.0]
      }
    },
    {
      "type": "Feature",
      "properties": {
        "SISTEMA": "Metrobús",
        "NOMBRE": "Río Tecolutla",
        "LINEA": "02",
        "EST": "26",
        "CVE_EST": "MB0226",
        "CVE_EOD17": "11075",
        "TIPO": "Intermedia",
        "ALCALDIAS": "Iztapalapa",
        "AÑO": 2008
      },
      "geometry": {
        "type": "Point",
        "coordinates": [-99.083150015578411, 19.389056448112665, 0.0]
      }
    },
    {
      "type": "Feature",
      "properties": {
        "SISTEMA": "Metrobús",
        "NOMBRE": "Río Mayo",
        "LINEA": "02",
        "EST": "27",
        "CVE_EST": "MB0227",
        "CVE_EOD17": "11074",
        "TIPO": "Intermedia",
        "ALCALDIAS": "Iztapalapa",
        "AÑO": 2008
      },
      "geometry": {
        "type": "Point",
        "coordinates": [-99.080023567587403, 19.386961805905234, 0.0]
      }
    },
    {
      "type": "Feature",
      "properties": {
        "SISTEMA": "Metrobús",
        "NOMBRE": "Rojo Gómez",
        "LINEA": "02",
        "EST": "28",
        "CVE_EST": "MB0228",
        "CVE_EOD17": "11076",
        "TIPO": "Intermedia",
        "ALCALDIAS": "Iztapalapa",
        "AÑO": 2008
      },
      "geometry": {
        "type": "Point",
        "coordinates": [-99.076366513292257, 19.384508944125194, 0.0]
      }
    },
    {
      "type": "Feature",
      "properties": {
        "SISTEMA": "Metrobús",
        "NOMBRE": "Río Frío",
        "LINEA": "02",
        "EST": "29",
        "CVE_EST": "MB0229",
        "CVE_EOD17": "11073",
        "TIPO": "Intermedia",
        "ALCALDIAS": "Iztacalco / Iztapalapa",
        "AÑO": 2008
      },
      "geometry": {
        "type": "Point",
        "coordinates": [-99.074280957553725, 19.387628405483152, 0.0]
      }
    },
    {
      "type": "Feature",
      "properties": {
        "SISTEMA": "Metrobús",
        "NOMBRE": "Del Moral",
        "LINEA": "02",
        "EST": "30",
        "CVE_EST": "MB0230",
        "CVE_EOD17": "11058",
        "TIPO": "Intermedia",
        "ALCALDIAS": "Iztapalapa",
        "AÑO": 2008
      },
      "geometry": {
        "type": "Point",
        "coordinates": [-99.070920251271929, 19.384197176822695, 0.0]
      }
    },
    {
      "type": "Feature",
      "properties": {
        "SISTEMA": "Metrobús",
        "NOMBRE": "Leyes de Reforma",
        "LINEA": "02",
        "EST": "31",
        "CVE_EST": "MB0231",
        "CVE_EOD17": "11067",
        "TIPO": "Intermedia",
        "ALCALDIAS": "Iztacalco / Iztapalapa",
        "AÑO": 2008
      },
      "geometry": {
        "type": "Point",
        "coordinates": [-99.065819619253588, 19.383470158511905, 0.0]
      }
    },
    {
      "type": "Feature",
      "properties": {
        "SISTEMA": "Metrobús",
        "NOMBRE": "CCH Oriente",
        "LINEA": "02",
        "EST": "32",
        "CVE_EST": "MB0232",
        "CVE_EOD17": "11053",
        "TIPO": "Intermedia",
        "ALCALDIAS": "Iztacalco / Iztapalapa",
        "AÑO": 2008
      },
      "geometry": {
        "type": "Point",
        "coordinates": [-99.060791847740532, 19.383326965131754, 0.0]
      }
    },
    {
      "type": "Feature",
      "properties": {
        "SISTEMA": "Metrobús",
        "NOMBRE": "Constitución de Apatzingán",
        "LINEA": "02",
        "EST": "33",
        "CVE_EST": "MB0233",
        "CVE_EOD17": "11055",
        "TIPO": "Intermedia",
        "ALCALDIAS": "Iztacalco / Iztapalapa",
        "AÑO": 2008
      },
      "geometry": {
        "type": "Point",
        "coordinates": [-99.059848218789824, 19.389031206363967, 0.0]
      }
    },
    {
      "type": "Feature",
      "properties": {
        "SISTEMA": "Metrobús",
        "NOMBRE": "Canal de San Juan",
        "LINEA": "02",
        "EST": "34",
        "CVE_EST": "MB0234",
        "CVE_EOD17": "11051",
        "TIPO": "Intermedia",
        "ALCALDIAS": "Iztapalapa",
        "AÑO": 2008
      },
      "geometry": {
        "type": "Point",
        "coordinates": [-99.056547520179763, 19.396711223779061, 0.0]
      }
    },
    {
      "type": "Feature",
      "properties": {
        "SISTEMA": "Metrobús",
        "NOMBRE": "General Antonio de León",
        "LINEA": "02",
        "EST": "35",
        "CVE_EST": "MB0235",
        "CVE_EOD17": "11062",
        "TIPO": "Intermedia",
        "ALCALDIAS": "Iztapalapa",
        "AÑO": 2008
      },
      "geometry": {
        "type": "Point",
        "coordinates": [-99.051733813636119, 19.385381301595025, 0.0]
      }
    },
    {
      "type": "Feature",
      "properties": {
        "SISTEMA": "Metrobús",
        "NOMBRE": "Nicolás Bravo",
        "LINEA": "02",
        "EST": "36",
        "CVE_EST": "MB0236",
        "CVE_EOD17": "11068",
        "TIPO": "Intermedia",
        "ALCALDIAS": "Iztapalapa",
        "AÑO": 2008
      },
      "geometry": {
        "type": "Point",
        "coordinates": [-99.050925320128499, 19.393495417171533, 0.0]
      }
    },
    {
      "type": "Feature",
      "properties": {
        "SISTEMA": "Metrobús",
        "NOMBRE": "Tepalcates",
        "LINEA": "02",
        "EST": "37",
        "CVE_EST": "MB0237",
        "CVE_EOD17": "11078",
        "TIPO": "Terminal",
        "ALCALDIAS": "Iztapalapa",
        "AÑO": 2008
      },
      "geometry": {
        "type": "Point",
        "coordinates": [-99.047612592446555, 19.390767861575902, 0.0]
      }
    },
    {
      "type": "Feature",
      "properties": {
        "SISTEMA": "Metrobús",
        "NOMBRE": "Tenayuca",
        "LINEA": "03",
        "EST": "01",
        "CVE_EST": "MB0301",
        "CVE_EOD17": "11112",
        "TIPO": "Terminal",
        "ALCALDIAS": "Gustavo A. Madero",
        "AÑO": 2011
      },
      "geometry": {
        "type": "Point",
        "coordinates": [-99.170111357991217, 19.5286169823938, 0.0]
      }
    },
    {
      "type": "Feature",
      "properties": {
        "SISTEMA": "Metrobús",
        "NOMBRE": "San José de la Escalera",
        "LINEA": "03",
        "EST": "02",
        "CVE_EST": "MB0302",
        "CVE_EOD17": "11111",
        "TIPO": "Intermedia",
        "ALCALDIAS": "Gustavo A. Madero",
        "AÑO": 2011
      },
      "geometry": {
        "type": "Point",
        "coordinates": [-99.165555348251033, 19.522718769379701, 0.0]
      }
    },
    {
      "type": "Feature",
      "properties": {
        "SISTEMA": "Metrobús",
        "NOMBRE": "Progreso Nacional",
        "LINEA": "03",
        "EST": "03",
        "CVE_EST": "MB0303",
        "CVE_EOD17": "11109",
        "TIPO": "Intermedia",
        "ALCALDIAS": "Gustavo A. Madero",
        "AÑO": 2011
      },
      "geometry": {
        "type": "Point",
        "coordinates": [-99.163771972090032, 19.519688433851808, 0.0]
      }
    },
    {
      "type": "Feature",
      "properties": {
        "SISTEMA": "Metrobús",
        "NOMBRE": "Tres Anegas",
        "LINEA": "03",
        "EST": "04",
        "CVE_EST": "MB0304",
        "CVE_EOD17": "11115",
        "TIPO": "Intermedia",
        "ALCALDIAS": "Gustavo A. Madero",
        "AÑO": 2011
      },
      "geometry": {
        "type": "Point",
        "coordinates": [-99.161932830067002, 19.515505438266889, 0.0]
      }
    },
    {
      "type": "Feature",
      "properties": {
        "SISTEMA": "Metrobús",
        "NOMBRE": "Júpiter",
        "LINEA": "03",
        "EST": "05",
        "CVE_EST": "MB0305",
        "CVE_EOD17": "11098",
        "TIPO": "Intermedia",
        "ALCALDIAS": "Gustavo A. Madero / Estado de México - Tlalnepantla",
        "AÑO": 2011
      },
      "geometry": {
        "type": "Point",
        "coordinates": [-99.159235756779097, 19.508614111481236, 0.0]
      }
    },
    {
      "type": "Feature",
      "properties": {
        "SISTEMA": "Metrobús",
        "NOMBRE": "La Patera",
        "LINEA": "03",
        "EST": "06",
        "CVE_EST": "MB0306",
        "CVE_EOD17": "11099",
        "TIPO": "Intermedia",
        "ALCALDIAS": "Gustavo A. Madero / Estado de México - Tlalnepantla",
        "AÑO": 2011
      },
      "geometry": {
        "type": "Point",
        "coordinates": [-99.157266668355547, 19.503663641847012, 0.0]
      }
    },
    {
      "type": "Feature",
      "properties": {
        "SISTEMA": "Metrobús",
        "NOMBRE": "Poniente 146",
        "LINEA": "03",
        "EST": "07",
        "CVE_EST": "MB0307",
        "CVE_EOD17": "11108",
        "TIPO": "Intermedia",
        "ALCALDIAS": "Gustavo A. Madero / Azcapotzalco",
        "AÑO": 2011
      },
      "geometry": {
        "type": "Point",
        "coordinates": [-99.155884663954765, 19.499986083480362, 0.0]
      }
    },
    {
      "type": "Feature",
      "properties": {
        "SISTEMA": "Metrobús",
        "NOMBRE": "Montevideo",
        "LINEA": "03",
        "EST": "08",
        "CVE_EST": "MB0308",
        "CVE_EOD17": "11103",
        "TIPO": "Transbordo",
        "ALCALDIAS": "Gustavo A. Madero / Azcapotzalco",
        "AÑO": 2011
      },
      "geometry": {
        "type": "Point",
        "coordinates": [-99.15445675394804, 19.496105808364472, 0.0]
      }
    },
    {
      "type": "Feature",
      "properties": {
        "SISTEMA": "Metrobús",
        "NOMBRE": "Poniente 134",
        "LINEA": "03",
        "EST": "09",
        "CVE_EST": "MB0309",
        "CVE_EOD17": "11107",
        "TIPO": "Intermedia",
        "ALCALDIAS": "Gustavo A. Madero / Azcapotzalco",
        "AÑO": 2011
      },
      "geometry": {
        "type": "Point",
        "coordinates": [-99.153170613111314, 19.492687505131098, 0.0]
      }
    },
    {
      "type": "Feature",
      "properties": {
        "SISTEMA": "Metrobús",
        "NOMBRE": "Poniente 128",
        "LINEA": "03",
        "EST": "10",
        "CVE_EST": "MB0310",
        "CVE_EOD17": "11106",
        "TIPO": "Intermedia",
        "ALCALDIAS": "Gustavo A. Madero / Azcapotzalco",
        "AÑO": 2011
      },
      "geometry": {
        "type": "Point",
        "coordinates": [-99.151955660581194, 19.489545926642752, 0.0]
      }
    },
    {
      "type": "Feature",
      "properties": {
        "SISTEMA": "Metrobús",
        "NOMBRE": "Magdalena de las Salinas",
        "LINEA": "03",
        "EST": "11",
        "CVE_EST": "MB0311",
        "CVE_EOD17": "11101",
        "TIPO": "Intermedia",
        "ALCALDIAS": "Gustavo A. Madero / Azcapotzalco",
        "AÑO": 2011
      },
      "geometry": {
        "type": "Point",
        "coordinates": [-99.14985948376416, 19.483881525125724, 0.0]
      }
    },
    {
      "type": "Feature",
      "properties": {
        "SISTEMA": "Metrobús",
        "NOMBRE": "Coltongo",
        "LINEA": "03",
        "EST": "12",
        "CVE_EST": "MB0312",
        "CVE_EOD17": "11087",
        "TIPO": "Intermedia",
        "ALCALDIAS": "Gustavo A. Madero / Azcapotzalco",
        "AÑO": 2011
      },
      "geometry": {
        "type": "Point",
        "coordinates": [-99.148327417384252, 19.479851429089226, 0.0]
      }
    },
    {
      "type": "Feature",
      "properties": {
        "SISTEMA": "Metrobús",
        "NOMBRE": "Cuitláhuac",
        "LINEA": "03",
        "EST": "13",
        "CVE_EST": "MB0313",
        "CVE_EOD17": "11089",
        "TIPO": "Intermedia",
        "ALCALDIAS": "Gustavo A. Madero / Azcapotzalco",
        "AÑO": 2011
      },
      "geometry": {
        "type": "Point",
        "coordinates": [-99.146160403285464, 19.474150674077126, 0.0]
      }
    },
    {
      "type": "Feature",
      "properties": {
        "SISTEMA": "Metrobús",
        "NOMBRE": "Héroe de Nacozari",
        "LINEA": "03",
        "EST": "14",
        "CVE_EST": "MB0314",
        "CVE_EOD17": "11092",
        "TIPO": "Intermedia",
        "ALCALDIAS": "Gustavo A. Madero / Azcapotzalco",
        "AÑO": 2011
      },
      "geometry": {
        "type": "Point",
        "coordinates": [-99.145038530276409, 19.471162298443108, 0.0]
      }
    },
    {
      "type": "Feature",
      "properties": {
        "SISTEMA": "Metrobús",
        "NOMBRE": "Hospital La Raza",
        "LINEA": "03",
        "EST": "15",
        "CVE_EST": "MB0315",
        "CVE_EOD17": "11095",
        "TIPO": "Intermedia",
        "ALCALDIAS": "Gustavo A. Madero / Azcapotzalco",
        "AÑO": 2011
      },
      "geometry": {
        "type": "Point",
        "coordinates": [-99.14384647140281, 19.467990084991264, 0.0]
      }
    },
    {
      "type": "Feature",
      "properties": {
        "SISTEMA": "Metrobús",
        "NOMBRE": "La Raza",
        "LINEA": "03",
        "EST": "16",
        "CVE_EST": "MB0316",
        "CVE_EOD17": "11100",
        "TIPO": "Terminal / Transbordo",
        "ALCALDIAS": "Gustavo A. Madero",
        "AÑO": 2011
      },
      "geometry": {
        "type": "Point",
        "coordinates": [-99.14095197700037, 19.467325707115016, 0.0]
      }
    },
    {
      "type": "Feature",
      "properties": {
        "SISTEMA": "Metrobús",
        "NOMBRE": "Circuito",
        "LINEA": "03",
        "EST": "17",
        "CVE_EST": "MB0317",
        "CVE_EOD17": "11086",
        "TIPO": "Transbordo",
        "ALCALDIAS": "Cuauhtémoc",
        "AÑO": 2011
      },
      "geometry": {
        "type": "Point",
        "coordinates": [-99.144062408002554, 19.463292598767524, 0.0]
      }
    },
    {
      "type": "Feature",
      "properties": {
        "SISTEMA": "Metrobús",
        "NOMBRE": "Tolnahuác",
        "LINEA": "03",
        "EST": "18",
        "CVE_EST": "MB0318",
        "CVE_EOD17": "11114",
        "TIPO": "Intermedia",
        "ALCALDIAS": "Cuauhtémoc",
        "AÑO": 2011
      },
      "geometry": {
        "type": "Point",
        "coordinates": [-99.14406434468907, 19.459889801775876, 0.0]
      }
    },
    {
      "type": "Feature",
      "properties": {
        "SISTEMA": "Metrobús",
        "NOMBRE": "Tlatelolco",
        "LINEA": "03",
        "EST": "19",
        "CVE_EST": "MB0319",
        "CVE_EOD17": "11113",
        "TIPO": "Intermedia",
        "ALCALDIAS": "Cuauhtémoc",
        "AÑO": 2011
      },
      "geometry": {
        "type": "Point",
        "coordinates": [-99.145045586517995, 19.455559396959607, 0.0]
      }
    },
    {
      "type": "Feature",
      "properties": {
        "SISTEMA": "Metrobús",
        "NOMBRE": "Ricardo Flores Magón",
        "LINEA": "03",
        "EST": "20",
        "CVE_EST": "MB0320",
        "CVE_EOD17": "11110",
        "TIPO": "Intermedia",
        "ALCALDIAS": "Cuauhtémoc",
        "AÑO": 2011
      },
      "geometry": {
        "type": "Point",
        "coordinates": [-99.145904313918123, 19.451781828819929, 0.0]
      }
    },
    {
      "type": "Feature",
      "properties": {
        "SISTEMA": "Metrobús",
        "NOMBRE": "Guerrero",
        "LINEA": "03",
        "EST": "21",
        "CVE_EST": "MB0321",
        "CVE_EOD17": "11091",
        "TIPO": "Intermedia",
        "ALCALDIAS": "Cuauhtémoc",
        "AÑO": 2011
      },
      "geometry": {
        "type": "Point",
        "coordinates": [-99.147212035473231, 19.446028781312261, 0.0]
      }
    },
    {
      "type": "Feature",
      "properties": {
        "SISTEMA": "Metrobús",
        "NOMBRE": "Buenavista III",
        "LINEA": "03",
        "EST": "22",
        "CVE_EST": "MB0322",
        "CVE_EOD17": "11084",
        "TIPO": "Terminal",
        "ALCALDIAS": "Cuauhtémoc",
        "AÑO": 2011
      },
      "geometry": {
        "type": "Point",
        "coordinates": [-99.151996985203112, 19.446126523325209, 0.0]
      }
    },
    {
      "type": "Feature",
      "properties": {
        "SISTEMA": "Metrobús",
        "NOMBRE": "Mina",
        "LINEA": "03",
        "EST": "23",
        "CVE_EST": "MB0323",
        "CVE_EOD17": "11102",
        "TIPO": "Intermedia",
        "ALCALDIAS": "Cuauhtémoc",
        "AÑO": 2011
      },
      "geometry": {
        "type": "Point",
        "coordinates": [-99.14854680022269, 19.440584238229647, 0.0]
      }
    },
    {
      "type": "Feature",
      "properties": {
        "SISTEMA": "Metrobús",
        "NOMBRE": "Hidalgo",
        "LINEA": "03",
        "EST": "24",
        "CVE_EST": "MB0324",
        "CVE_EOD17": "11093",
        "TIPO": "Transbordo",
        "ALCALDIAS": "Cuauhtémoc",
        "AÑO": 2011
      },
      "geometry": {
        "type": "Point",
        "coordinates": [-99.147213542998259, 19.436005784016906, 0.0]
      }
    },
    {
      "type": "Feature",
      "properties": {
        "SISTEMA": "Metrobús",
        "NOMBRE": "Juárez",
        "LINEA": "03",
        "EST": "25",
        "CVE_EST": "MB0325",
        "CVE_EOD17": "11097",
        "TIPO": "Transbordo",
        "ALCALDIAS": "Cuauhtémoc",
        "AÑO": 2011
      },
      "geometry": {
        "type": "Point",
        "coordinates": [-99.148032262736734, 19.431290369144747, 0.0]
      }
    },
    {
      "type": "Feature",
      "properties": {
        "SISTEMA": "Metrobús",
        "NOMBRE": "Balderas",
        "LINEA": "03",
        "EST": "26",
        "CVE_EST": "MB0326",
        "CVE_EOD17": "11083",
        "TIPO": "Terminal",
        "ALCALDIAS": "Cuauhtémoc",
        "AÑO": 2011
      },
      "geometry": {
        "type": "Point",
        "coordinates": [-99.1487392095774, 19.428065823281596, 0.0]
      }
    },
    {
      "type": "Feature",
      "properties": {
        "SISTEMA": "Metrobús",
        "NOMBRE": "Cuauhtémoc",
        "LINEA": "03",
        "EST": "27",
        "CVE_EST": "MB0327",
        "CVE_EOD17": "11088",
        "TIPO": "Intermedia",
        "ALCALDIAS": "Cuauhtémoc",
        "AÑO": 2011
      },
      "geometry": {
        "type": "Point",
        "coordinates": [-99.15370156831095, 19.42495914337271, 0.0]
      }
    },
    {
      "type": "Feature",
      "properties": {
        "SISTEMA": "Metrobús",
        "NOMBRE": "Jardín Pushkin",
        "LINEA": "03",
        "EST": "28",
        "CVE_EST": "MB0328",
        "CVE_EOD17": "11096",
        "TIPO": "Intermedia",
        "ALCALDIAS": "Cuauhtémoc",
        "AÑO": 2011
      },
      "geometry": {
        "type": "Point",
        "coordinates": [-99.154083644658485, 19.420398689564422, 0.0]
      }
    },
    {
      "type": "Feature",
      "properties": {
        "SISTEMA": "Metrobús",
        "NOMBRE": "Hospital General",
        "LINEA": "03",
        "EST": "29",
        "CVE_EST": "MB0329",
        "CVE_EOD17": "11094",
        "TIPO": "Intermedia",
        "ALCALDIAS": "Cuauhtémoc",
        "AÑO": 2011
      },
      "geometry": {
        "type": "Point",
        "coordinates": [-99.154559021384955, 19.41443601939125, 0.0]
      }
    },
    {
      "type": "Feature",
      "properties": {
        "SISTEMA": "Metrobús",
        "NOMBRE": "Doctor Márquez",
        "LINEA": "03",
        "EST": "30",
        "CVE_EST": "MB0330",
        "CVE_EOD17": "11090",
        "TIPO": "Intermedia",
        "ALCALDIAS": "Cuauhtémoc",
        "AÑO": 2011
      },
      "geometry": {
        "type": "Point",
        "coordinates": [-99.154844993772741, 19.411111393261983, 0.0]
      }
    },
    {
      "type": "Feature",
      "properties": {
        "SISTEMA": "Metrobús",
        "NOMBRE": "Centro Médico",
        "LINEA": "03",
        "EST": "31",
        "CVE_EST": "MB0331",
        "CVE_EOD17": "11085",
        "TIPO": "Intermedia",
        "ALCALDIAS": "Cuauhtémoc",
        "AÑO": 2011
      },
      "geometry": {
        "type": "Point",
        "coordinates": [-99.155126678289079, 19.40727323059421, 0.0]
      }
    },
    {
      "type": "Feature",
      "properties": {
        "SISTEMA": "Metrobús",
        "NOMBRE": "Obrero Mundial",
        "LINEA": "03",
        "EST": "32",
        "CVE_EST": "MB0332",
        "CVE_EOD17": "11104",
        "TIPO": "Intermedia",
        "ALCALDIAS": "Benito Juárez",
        "AÑO": 2011
      },
      "geometry": {
        "type": "Point",
        "coordinates": [-99.155602309252714, 19.401060179147194, 0.0]
      }
    },
    {
      "type": "Feature",
      "properties": {
        "SISTEMA": "Metrobús",
        "NOMBRE": "Etiopía",
        "LINEA": "03",
        "EST": "33",
        "CVE_EST": "MB0333",
        "CVE_EOD17": "11105",
        "TIPO": "Transbordo",
        "ALCALDIAS": "Benito Juárez",
        "AÑO": 2011
      },
      "geometry": {
        "type": "Point",
        "coordinates": [-99.155902455050622, 19.396996886126235, 0.0]
      }
    },
    {
      "type": "Feature",
      "properties": {
        "SISTEMA": "Metrobús",
        "NOMBRE": "Luz Saviñón",
        "LINEA": "03",
        "EST": "34",
        "CVE_EST": "MB0334",
        "CVE_EOD17": null,
        "TIPO": "Intermedia",
        "ALCALDIAS": "Benito Juárez",
        "AÑO": 2021
      },
      "geometry": {
        "type": "Point",
        "coordinates": [-99.156346046710397, 19.391592993258193, 0.0]
      }
    },
    {
      "type": "Feature",
      "properties": {
        "SISTEMA": "Metrobús",
        "NOMBRE": "Eugenia",
        "LINEA": "03",
        "EST": "35",
        "CVE_EST": "MB0335",
        "CVE_EOD17": null,
        "TIPO": "Intermedia",
        "ALCALDIAS": "Benito Juárez",
        "AÑO": 2021
      },
      "geometry": {
        "type": "Point",
        "coordinates": [-99.157227117046574, 19.385953800913427, 0.0]
      }
    },
    {
      "type": "Feature",
      "properties": {
        "SISTEMA": "Metrobús",
        "NOMBRE": "División del Norte",
        "LINEA": "03",
        "EST": "36",
        "CVE_EST": "MB0336",
        "CVE_EOD17": null,
        "TIPO": "Intermedia",
        "ALCALDIAS": "Benito Juárez",
        "AÑO": 2021
      },
      "geometry": {
        "type": "Point",
        "coordinates": [-99.158743697845352, 19.380505259578396, 0.0]
      }
    },
    {
      "type": "Feature",
      "properties": {
        "SISTEMA": "Metrobús",
        "NOMBRE": "Miguel Laurent",
        "LINEA": "03",
        "EST": "37",
        "CVE_EST": "MB0337",
        "CVE_EOD17": null,
        "TIPO": "Intermedia",
        "ALCALDIAS": "Benito Juárez",
        "AÑO": 2021
      },
      "geometry": {
        "type": "Point",
        "coordinates": [-99.160229820039746, 19.374836827241914, 0.0]
      }
    },
    {
      "type": "Feature",
      "properties": {
        "SISTEMA": "Metrobús",
        "NOMBRE": "Pueblo Santa Cruz Atoyac",
        "LINEA": "03",
        "EST": "38",
        "CVE_EST": "MB0338",
        "CVE_EOD17": null,
        "TIPO": "Terminal",
        "ALCALDIAS": "Benito Juárez",
        "AÑO": 2021
      },
      "geometry": {
        "type": "Point",
        "coordinates": [-99.161008812167381, 19.371569277530455, 0.0]
      }
    },
    {
      "type": "Feature",
      "properties": {
        "SISTEMA": "Metrobús",
        "NOMBRE": "Río de Los Remedios",
        "LINEA": "05",
        "EST": "01",
        "CVE_EST": "MB0501",
        "CVE_EOD17": "11163",
        "TIPO": "Terminal",
        "ALCALDIAS": "Gustavo A. Madero / Estado de México - Ecatepec",
        "AÑO": 2013
      },
      "geometry": {
        "type": "Point",
        "coordinates": [-99.085934500390337, 19.507111490097341, 0.0]
      }
    },
    {
      "type": "Feature",
      "properties": {
        "SISTEMA": "Metrobús",
        "NOMBRE": "314 Memorial New's Divine",
        "LINEA": "05",
        "EST": "02",
        "CVE_EST": "MB0502",
        "CVE_EOD17": "11153",
        "TIPO": "Intermedia",
        "ALCALDIAS": "Gustavo A. Madero",
        "AÑO": 2013
      },
      "geometry": {
        "type": "Point",
        "coordinates": [-99.088728281605825, 19.50060621508473, 0.0]
      }
    },
    {
      "type": "Feature",
      "properties": {
        "SISTEMA": "Metrobús",
        "NOMBRE": "5 de Mayo",
        "LINEA": "05",
        "EST": "03",
        "CVE_EST": "MB0503",
        "CVE_EOD17": "11154",
        "TIPO": "Intermedia",
        "ALCALDIAS": "Gustavo A. Madero",
        "AÑO": 2013
      },
      "geometry": {
        "type": "Point",
        "coordinates": [-99.090177614438218, 19.497090158579475, 0.0]
      }
    },
    {
      "type": "Feature",
      "properties": {
        "SISTEMA": "Metrobús",
        "NOMBRE": "Vasco de Quiroga",
        "LINEA": "05",
        "EST": "04",
        "CVE_EST": "MB0504",
        "CVE_EOD17": "11169",
        "TIPO": "Intermedia",
        "ALCALDIAS": "Gustavo A. Madero",
        "AÑO": 2013
      },
      "geometry": {
        "type": "Point",
        "coordinates": [-99.091782734089335, 19.493296020128245, 0.0]
      }
    },
    {
      "type": "Feature",
      "properties": {
        "SISTEMA": "Metrobús",
        "NOMBRE": "El Coyol",
        "LINEA": "05",
        "EST": "05",
        "CVE_EST": "MB0505",
        "CVE_EOD17": "11158",
        "TIPO": "Intermedia",
        "ALCALDIAS": "Gustavo A. Madero",
        "AÑO": 2013
      },
      "geometry": {
        "type": "Point",
        "coordinates": [-99.094175998989556, 19.48753788436704, 0.0]
      }
    },
    {
      "type": "Feature",
      "properties": {
        "SISTEMA": "Metrobús",
        "NOMBRE": "Preparatoria 3",
        "LINEA": "05",
        "EST": "06",
        "CVE_EST": "MB0506",
        "CVE_EOD17": "11161",
        "TIPO": "Intermedia",
        "ALCALDIAS": "Gustavo A. Madero",
        "AÑO": 2013
      },
      "geometry": {
        "type": "Point",
        "coordinates": [-99.096009302843143, 19.483362132501473, 0.0]
      }
    },
    {
      "type": "Feature",
      "properties": {
        "SISTEMA": "Metrobús",
        "NOMBRE": "San Juan de Aragón",
        "LINEA": "05",
        "EST": "07",
        "CVE_EST": "MB0507",
        "CVE_EOD17": "11166",
        "TIPO": "Transbordo",
        "ALCALDIAS": "Gustavo A. Madero",
        "AÑO": 2013
      },
      "geometry": {
        "type": "Point",
        "coordinates": [-99.097506459610912, 19.479868545989383, 0.0]
      }
    },
    {
      "type": "Feature",
      "properties": {
        "SISTEMA": "Metrobús",
        "NOMBRE": "Río de Guadalupe",
        "LINEA": "05",
        "EST": "08",
        "CVE_EST": "MB0508",
        "CVE_EOD17": "11164",
        "TIPO": "Intermedia",
        "ALCALDIAS": "Gustavo A. Madero",
        "AÑO": 2013
      },
      "geometry": {
        "type": "Point",
        "coordinates": [-99.099116522301742, 19.476027585363521, 0.0]
      }
    },
    {
      "type": "Feature",
      "properties": {
        "SISTEMA": "Metrobús",
        "NOMBRE": "Talismán",
        "LINEA": "05",
        "EST": "09",
        "CVE_EST": "MB0509",
        "CVE_EOD17": "11168",
        "TIPO": "Intermedia",
        "ALCALDIAS": "Gustavo A. Madero",
        "AÑO": 2013
      },
      "geometry": {
        "type": "Point",
        "coordinates": [-99.101242943946957, 19.471017236268825, 0.0]
      }
    },
    {
      "type": "Feature",
      "properties": {
        "SISTEMA": "Metrobús",
        "NOMBRE": "Victoria",
        "LINEA": "05",
        "EST": "10",
        "CVE_EST": "MB0510",
        "CVE_EOD17": "11170",
        "TIPO": "Intermedia",
        "ALCALDIAS": "Gustavo A. Madero",
        "AÑO": 2013
      },
      "geometry": {
        "type": "Point",
        "coordinates": [-99.10279733696791, 19.46734152454793, 0.0]
      }
    },
    {
      "type": "Feature",
      "properties": {
        "SISTEMA": "Metrobús",
        "NOMBRE": "Oriente 101",
        "LINEA": "05",
        "EST": "11",
        "CVE_EST": "MB0511",
        "CVE_EOD17": "11160",
        "TIPO": "Intermedia",
        "ALCALDIAS": "Gustavo A. Madero",
        "AÑO": 2013
      },
      "geometry": {
        "type": "Point",
        "coordinates": [-99.105486052633324, 19.460974814399066, 0.0]
      }
    },
    {
      "type": "Feature",
      "properties": {
        "SISTEMA": "Metrobús",
        "NOMBRE": "Río Santa Coleta",
        "LINEA": "05",
        "EST": "12",
        "CVE_EST": "MB0512",
        "CVE_EOD17": "11165",
        "TIPO": "Intermedia",
        "ALCALDIAS": "Gustavo A. Madero",
        "AÑO": 2013
      },
      "geometry": {
        "type": "Point",
        "coordinates": [-99.107492916221517, 19.456058581060113, 0.0]
      }
    },
    {
      "type": "Feature",
      "properties": {
        "SISTEMA": "Metrobús",
        "NOMBRE": "Río Consulado",
        "LINEA": "05",
        "EST": "13",
        "CVE_EST": "MB0513",
        "CVE_EOD17": "11162",
        "TIPO": "Intermedia",
        "ALCALDIAS": "Gustavo A. Madero",
        "AÑO": 2013
      },
      "geometry": {
        "type": "Point",
        "coordinates": [-99.10844651603702, 19.453664846824879, 0.0]
      }
    },
    {
      "type": "Feature",
      "properties": {
        "SISTEMA": "Metrobús",
        "NOMBRE": "Canal del Norte",
        "LINEA": "05",
        "EST": "14",
        "CVE_EST": "MB0514",
        "CVE_EOD17": "11156",
        "TIPO": "Intermedia",
        "ALCALDIAS": "Venustiano Carranza",
        "AÑO": 2013
      },
      "geometry": {
        "type": "Point",
        "coordinates": [-99.110357151640741, 19.449686388775383, 0.0]
      }
    },
    {
      "type": "Feature",
      "properties": {
        "SISTEMA": "Metrobús",
        "NOMBRE": "Deportivo Eduardo Molina",
        "LINEA": "05",
        "EST": "15",
        "CVE_EST": "MB0515",
        "CVE_EOD17": "11157",
        "TIPO": "Intermedia",
        "ALCALDIAS": "Venustiano Carranza",
        "AÑO": 2013
      },
      "geometry": {
        "type": "Point",
        "coordinates": [-99.112175453306506, 19.444699160776921, 0.0]
      }
    },
    {
      "type": "Feature",
      "properties": {
        "SISTEMA": "Metrobús",
        "NOMBRE": "Mercado Morelos",
        "LINEA": "05",
        "EST": "16",
        "CVE_EST": "MB0516",
        "CVE_EOD17": "11159",
        "TIPO": "Intermedia",
        "ALCALDIAS": "Venustiano Carranza",
        "AÑO": 2013
      },
      "geometry": {
        "type": "Point",
        "coordinates": [-99.113439616353176, 19.44132427865846, 0.0]
      }
    },
    {
      "type": "Feature",
      "properties": {
        "SISTEMA": "Metrobús",
        "NOMBRE": "Archivo General de la Nación",
        "LINEA": "05",
        "EST": "17",
        "CVE_EST": "MB0517",
        "CVE_EOD17": "11155",
        "TIPO": "Transbordo",
        "ALCALDIAS": "Venustiano Carranza",
        "AÑO": 2013
      },
      "geometry": {
        "type": "Point",
        "coordinates": [-99.114399318076906, 19.437174700566398, 0.0]
      }
    },
    {
      "type": "Feature",
      "properties": {
        "SISTEMA": "Metrobús",
        "NOMBRE": "San Lázaro",
        "LINEA": "05",
        "EST": "18",
        "CVE_EST": "MB0518",
        "CVE_EOD17": "11167",
        "TIPO": "Terminal / Transbordo",
        "ALCALDIAS": "Venustiano Carranza",
        "AÑO": 2013
      },
      "geometry": {
        "type": "Point",
        "coordinates": [-99.115276080853462, 19.43082245537709, 0.0]
      }
    },
    {
      "type": "Feature",
      "properties": {
        "SISTEMA": "Metrobús",
        "NOMBRE": "Moctezuma",
        "LINEA": "05",
        "EST": "19",
        "CVE_EST": "MB0519",
        "CVE_EOD17": null,
        "TIPO": "Transbordo",
        "ALCALDIAS": "Venustiano Carranza",
        "AÑO": 2020
      },
      "geometry": {
        "type": "Point",
        "coordinates": [-99.111474085632949, 19.42558579366586, 0.0]
      }
    },
    {
      "type": "Feature",
      "properties": {
        "SISTEMA": "Metrobús",
        "NOMBRE": "Venustiano Carranza",
        "LINEA": "05",
        "EST": "20",
        "CVE_EST": "MB0520",
        "CVE_EOD17": null,
        "TIPO": "Intermedia",
        "ALCALDIAS": "Venustiano Carranza",
        "AÑO": 2020
      },
      "geometry": {
        "type": "Point",
        "coordinates": [-99.112218719814848, 19.418374104890884, 0.0]
      }
    },
    {
      "type": "Feature",
      "properties": {
        "SISTEMA": "Metrobús",
        "NOMBRE": "Avenida del Taller",
        "LINEA": "05",
        "EST": "21",
        "CVE_EST": "MB0521",
        "CVE_EOD17": null,
        "TIPO": "Intermedia",
        "ALCALDIAS": "Venustiano Carranza",
        "AÑO": 2020
      },
      "geometry": {
        "type": "Point",
        "coordinates": [-99.112782349479204, 19.412935490752055, 0.0]
      }
    },
    {
      "type": "Feature",
      "properties": {
        "SISTEMA": "Metrobús",
        "NOMBRE": "Mixiuhca",
        "LINEA": "05",
        "EST": "22",
        "CVE_EST": "MB0522",
        "CVE_EOD17": null,
        "TIPO": "Intermedia",
        "ALCALDIAS": "Venustiano Carranza",
        "AÑO": 2020
      },
      "geometry": {
        "type": "Point",
        "coordinates": [-99.113327089140256, 19.407866014490573, 0.0]
      }
    },
    {
      "type": "Feature",
      "properties": {
        "SISTEMA": "Metrobús",
        "NOMBRE": "Hospital General Troncoso",
        "LINEA": "05",
        "EST": "23",
        "CVE_EST": "MB0523",
        "CVE_EOD17": null,
        "TIPO": "Intermedia",
        "ALCALDIAS": "Venustiano Carranza / Iztacalco",
        "AÑO": 2020
      },
      "geometry": {
        "type": "Point",
        "coordinates": [-99.113569634566758, 19.405456196626901, 0.0]
      }
    },
    {
      "type": "Feature",
      "properties": {
        "SISTEMA": "Metrobús",
        "NOMBRE": "Metro Coyuya",
        "LINEA": "05",
        "EST": "24",
        "CVE_EST": "MB0524",
        "CVE_EOD17": null,
        "TIPO": "Transbordo",
        "ALCALDIAS": "Iztacalco",
        "AÑO": 2020
      },
      "geometry": {
        "type": "Point",
        "coordinates": [-99.113533697390324, 19.399390323696515, 0.0]
      }
    },
    {
      "type": "Feature",
      "properties": {
        "SISTEMA": "Metrobús",
        "NOMBRE": "Recreo",
        "LINEA": "05",
        "EST": "25",
        "CVE_EST": "MB0525",
        "CVE_EOD17": null,
        "TIPO": "Intermedia",
        "ALCALDIAS": "Iztacalco",
        "AÑO": 2020
      },
      "geometry": {
        "type": "Point",
        "coordinates": [-99.113610318842774, 19.393851185935901, 0.0]
      }
    },
    {
      "type": "Feature",
      "properties": {
        "SISTEMA": "Metrobús",
        "NOMBRE": "Oriente 116",
        "LINEA": "05",
        "EST": "26",
        "CVE_EST": "MB0526",
        "CVE_EOD17": null,
        "TIPO": "Intermedia",
        "ALCALDIAS": "Iztacalco",
        "AÑO": 2020
      },
      "geometry": {
        "type": "Point",
        "coordinates": [-99.112657928863129, 19.390264504538923, 0.0]
      }
    },
    {
      "type": "Feature",
      "properties": {
        "SISTEMA": "Metrobús",
        "NOMBRE": "Colegio de Bachilleres 3",
        "LINEA": "05",
        "EST": "27",
        "CVE_EST": "MB0527",
        "CVE_EOD17": null,
        "TIPO": "Intermedia",
        "ALCALDIAS": "Iztacalco",
        "AÑO": 2020
      },
      "geometry": {
        "type": "Point",
        "coordinates": [-99.111661914973681, 19.386323920395775, 0.0]
      }
    },
    {
      "type": "Feature",
      "properties": {
        "SISTEMA": "Metrobús",
        "NOMBRE": "Canal Apatlaco",
        "LINEA": "05",
        "EST": "28",
        "CVE_EST": "MB0528",
        "CVE_EOD17": null,
        "TIPO": "Intermedia",
        "ALCALDIAS": "Iztacalco",
        "AÑO": 2020
      },
      "geometry": {
        "type": "Point",
        "coordinates": [-99.110888767308438, 19.382886983569986, 0.0]
      }
    },
    {
      "type": "Feature",
      "properties": {
        "SISTEMA": "Metrobús",
        "NOMBRE": "Apatlaco",
        "LINEA": "05",
        "EST": "29",
        "CVE_EST": "MB0529",
        "CVE_EOD17": null,
        "TIPO": "Intermedia",
        "ALCALDIAS": "Iztapalapa",
        "AÑO": 2020
      },
      "geometry": {
        "type": "Point",
        "coordinates": [-99.109072928288555, 19.378057886535348, 0.0]
      }
    },
    {
      "type": "Feature",
      "properties": {
        "SISTEMA": "Metrobús",
        "NOMBRE": "Aculco",
        "LINEA": "05",
        "EST": "30",
        "CVE_EST": "MB0530",
        "CVE_EOD17": null,
        "TIPO": "Intermedia",
        "ALCALDIAS": "Iztapalapa",
        "AÑO": 2020
      },
      "geometry": {
        "type": "Point",
        "coordinates": [-99.107975095456865, 19.374875117944928, 0.0]
      }
    },
    {
      "type": "Feature",
      "properties": {
        "SISTEMA": "Metrobús",
        "NOMBRE": "Churubusco Oriente",
        "LINEA": "05",
        "EST": "31",
        "CVE_EST": "MB0531",
        "CVE_EOD17": null,
        "TIPO": "Intermedia",
        "ALCALDIAS": "Iztapalapa",
        "AÑO": 2020
      },
      "geometry": {
        "type": "Point",
        "coordinates": [-99.107860638376152, 19.371594645529282, 0.0]
      }
    },
    {
      "type": "Feature",
      "properties": {
        "SISTEMA": "Metrobús",
        "NOMBRE": "Escuadrón 201",
        "LINEA": "05",
        "EST": "32",
        "CVE_EST": "MB0532",
        "CVE_EOD17": null,
        "TIPO": "Intermedia",
        "ALCALDIAS": "Iztapalapa",
        "AÑO": 2020
      },
      "geometry": {
        "type": "Point",
        "coordinates": [-99.109192163382616, 19.366043083300369, 0.0]
      }
    },
    {
      "type": "Feature",
      "properties": {
        "SISTEMA": "Metrobús",
        "NOMBRE": "Atanasio G. Saravia",
        "LINEA": "05",
        "EST": "33",
        "CVE_EST": "MB0533",
        "CVE_EOD17": null,
        "TIPO": "Intermedia",
        "ALCALDIAS": "Iztapalapa",
        "AÑO": 2020
      },
      "geometry": {
        "type": "Point",
        "coordinates": [-99.110283784794831, 19.361257339629237, 0.0]
      }
    },
    {
      "type": "Feature",
      "properties": {
        "SISTEMA": "Metrobús",
        "NOMBRE": "Ermita Iztapalapa",
        "LINEA": "05",
        "EST": "34",
        "CVE_EST": "MB0534",
        "CVE_EOD17": null,
        "TIPO": "Intermedia",
        "ALCALDIAS": "Iztapalapa",
        "AÑO": 2020
      },
      "geometry": {
        "type": "Point",
        "coordinates": [-99.111335813837798, 19.356628297758341, 0.0]
      }
    },
    {
      "type": "Feature",
      "properties": {
        "SISTEMA": "Metrobús",
        "NOMBRE": "Ganaderos",
        "LINEA": "05",
        "EST": "35",
        "CVE_EST": "MB0535",
        "CVE_EOD17": null,
        "TIPO": "Intermedia",
        "ALCALDIAS": "Iztapalapa",
        "AÑO": 2020
      },
      "geometry": {
        "type": "Point",
        "coordinates": [-99.110917751209769, 19.351575151311181, 0.0]
      }
    },
    {
      "type": "Feature",
      "properties": {
        "SISTEMA": "Metrobús",
        "NOMBRE": "Pueblo de los Reyes",
        "LINEA": "05",
        "EST": "36",
        "CVE_EST": "MB0536",
        "CVE_EOD17": null,
        "TIPO": "Intermedia",
        "ALCALDIAS": "Iztapalapa",
        "AÑO": 2020
      },
      "geometry": {
        "type": "Point",
        "coordinates": [-99.111341151075848, 19.347978179079181, 0.0]
      }
    },
    {
      "type": "Feature",
      "properties": {
        "SISTEMA": "Metrobús",
        "NOMBRE": "Barrio San Antonio",
        "LINEA": "05",
        "EST": "37",
        "CVE_EST": "MB0537",
        "CVE_EOD17": null,
        "TIPO": "Intermedia",
        "ALCALDIAS": "Iztapalapa",
        "AÑO": 2020
      },
      "geometry": {
        "type": "Point",
        "coordinates": [-99.112436393601968, 19.343126250187417, 0.0]
      }
    },
    {
      "type": "Feature",
      "properties": {
        "SISTEMA": "Metrobús",
        "NOMBRE": "Calzada Tasqueña",
        "LINEA": "05",
        "EST": "38",
        "CVE_EST": "MB0538",
        "CVE_EOD17": null,
        "TIPO": "Intermedia",
        "ALCALDIAS": "Iztapalapa",
        "AÑO": 2020
      },
      "geometry": {
        "type": "Point",
        "coordinates": [-99.112996503508512, 19.338755485617135, 0.0]
      }
    },